{
    "AYPY": {
        "alt": 146, 
        "country": "Papua New Guinea", 
        "iata": "POM", 
        "icao": "AYPY", 
        "lat": -9.44338, 
        "lon": 147.220001, 
        "name": "Port Moresby Jacksons International Airport"
    }, 
    "BGGH": {
        "alt": 283, 
        "country": "Greenland", 
        "iata": "GOH", 
        "icao": "BGGH", 
        "lat": 64.190918, 
        "lon": -51.678001, 
        "name": "Nuuk Airport"
    }, 
    "BGHB": {
        "alt": 33, 
        "country": "Greenland", 
        "iata": "JHS", 
        "icao": "BGHB", 
        "lat": 66.951279, 
        "lon": -53.729301, 
        "name": "Sisimiut Airport"
    }, 
    "BGKK": {
        "alt": 117, 
        "country": "Greenland", 
        "iata": "KUS", 
        "icao": "BGKK", 
        "lat": 65.573608, 
        "lon": -37.1236, 
        "name": "Kulusuk Airport"
    }, 
    "BGSF": {
        "alt": 165, 
        "country": "Greenland", 
        "iata": "SFJ", 
        "icao": "BGSF", 
        "lat": 67.01696, 
        "lon": -50.689301, 
        "name": "Kangerlussuaq Airport"
    }, 
    "BIAR": {
        "alt": 6, 
        "country": "Iceland", 
        "iata": "AEY", 
        "icao": "BIAR", 
        "lat": 65.658607, 
        "lon": -18.072201, 
        "name": "Akureyri Airport"
    }, 
    "BIEG": {
        "alt": 76, 
        "country": "Iceland", 
        "iata": "EGS", 
        "icao": "BIEG", 
        "lat": 65.283333, 
        "lon": -14.4013, 
        "name": "Egilsstadir Airport"
    }, 
    "BIKF": {
        "alt": 171, 
        "country": "Iceland", 
        "iata": "KEF", 
        "icao": "BIKF", 
        "lat": 63.985001, 
        "lon": -22.605499, 
        "name": "Keflavik International Airport"
    }, 
    "BIRK": {
        "alt": 48, 
        "country": "Iceland", 
        "iata": "RKV", 
        "icao": "BIRK", 
        "lat": 64.12999, 
        "lon": -21.9405, 
        "name": "Reykjavik Airport"
    }, 
    "BKPR": {
        "alt": 1789, 
        "country": "Kosovo", 
        "iata": "PRN", 
        "icao": "BKPR", 
        "lat": 42.572769, 
        "lon": 21.03583, 
        "name": "Pristina International Airport"
    }, 
    "CSU2": {
        "alt": 43, 
        "country": "Canada", 
        "iata": "YKU", 
        "icao": "CSU2", 
        "lat": 53.805599, 
        "lon": -78.916901, 
        "name": "Chisasibi Airport"
    }, 
    "CYAG": {
        "alt": 1125, 
        "country": "Canada", 
        "iata": "YAG", 
        "icao": "CYAG", 
        "lat": 48.650002, 
        "lon": -93.43, 
        "name": "Fort Frances Municipal Airport"
    }, 
    "CYAM": {
        "alt": 630, 
        "country": "Canada", 
        "iata": "YAM", 
        "icao": "CYAM", 
        "lat": 46.485001, 
        "lon": -84.509399, 
        "name": "Sault Ste. Marie Airport"
    }, 
    "CYAS": {
        "alt": 383, 
        "country": "Canada", 
        "iata": "YKG", 
        "icao": "CYAS", 
        "lat": 60.023083, 
        "lon": -70.004601, 
        "name": "Kangirsuk Airport"
    }, 
    "CYBC": {
        "alt": 71, 
        "country": "Canada", 
        "iata": "YBC", 
        "icao": "CYBC", 
        "lat": 49.1325, 
        "lon": -68.204399, 
        "name": "Baie Comeau Airport"
    }, 
    "CYBG": {
        "alt": 522, 
        "country": "Canada", 
        "iata": "YBG", 
        "icao": "CYBG", 
        "lat": 48.330551, 
        "lon": -70.9963, 
        "name": "Saguenay Bagotville Airport"
    }, 
    "CYBL": {
        "alt": 346, 
        "country": "Canada", 
        "iata": "YBL", 
        "icao": "CYBL", 
        "lat": 49.950829, 
        "lon": -125.269997, 
        "name": "Campbell River Airport"
    }, 
    "CYCD": {
        "alt": 92, 
        "country": "Canada", 
        "iata": "YCD", 
        "icao": "CYCD", 
        "lat": 49.167, 
        "lon": -123.932999, 
        "name": "Nanaimo Airport"
    }, 
    "CYCO": {
        "alt": 74, 
        "country": "Canada", 
        "iata": "YCO", 
        "icao": "CYCO", 
        "lat": 67.816658, 
        "lon": -115.142998, 
        "name": "Kugluktuk Airport"
    }, 
    "CYDF": {
        "alt": 72, 
        "country": "Canada", 
        "iata": "YDF", 
        "icao": "CYDF", 
        "lat": 49.210831, 
        "lon": -57.3913, 
        "name": "Deer Lake Regional Airport"
    }, 
    "CYEG": {
        "alt": 2373, 
        "country": "Canada", 
        "iata": "YEG", 
        "icao": "CYEG", 
        "lat": 53.309719, 
        "lon": -113.579002, 
        "name": "Edmonton International Airport"
    }, 
    "CYFB": {
        "alt": 110, 
        "country": "Canada", 
        "iata": "YFB", 
        "icao": "CYFB", 
        "lat": 63.75639, 
        "lon": -68.555801, 
        "name": "Iqaluit Airport"
    }, 
    "CYFC": {
        "alt": 68, 
        "country": "Canada", 
        "iata": "YFC", 
        "icao": "CYFC", 
        "lat": 45.868881, 
        "lon": -66.537201, 
        "name": "Fredericton International Airport"
    }, 
    "CYFJ": {
        "alt": 825, 
        "country": "Canada", 
        "iata": "YTM", 
        "icao": "CYFJ", 
        "lat": 46.409168, 
        "lon": -74.779999, 
        "name": "Mont Tremblant International Airport"
    }, 
    "CYGK": {
        "alt": 305, 
        "country": "Canada", 
        "iata": "YGK", 
        "icao": "CYGK", 
        "lat": 44.225269, 
        "lon": -76.596901, 
        "name": "Kingston Norman Rogers Airport"
    }, 
    "CYGL": {
        "alt": 639, 
        "country": "Canada", 
        "iata": "YGL", 
        "icao": "CYGL", 
        "lat": 53.625271, 
        "lon": -77.704102, 
        "name": "La Grande Riviere Airport"
    }, 
    "CYGP": {
        "alt": 108, 
        "country": "Canada", 
        "iata": "YGP", 
        "icao": "CYGP", 
        "lat": 48.775269, 
        "lon": -64.4786, 
        "name": "Gaspe Airport"
    }, 
    "CYGR": {
        "alt": 35, 
        "country": "Canada", 
        "iata": "YGR", 
        "icao": "CYGR", 
        "lat": 47.424721, 
        "lon": -61.778, 
        "name": "Iles-de-la-Madeleine Airport"
    }, 
    "CYGV": {
        "alt": 124, 
        "country": "Canada", 
        "iata": "YGV", 
        "icao": "CYGV", 
        "lat": 50.281944, 
        "lon": -63.611111, 
        "name": "Havre-Saint-Pierre Airport"
    }, 
    "CYGW": {
        "alt": 34, 
        "country": "Canada", 
        "iata": "YGW", 
        "icao": "CYGW", 
        "lat": 55.28138, 
        "lon": -77.758003, 
        "name": "Kuujjuarapik Airport"
    }, 
    "CYGX": {
        "alt": 5000, 
        "country": "Canada", 
        "iata": "YGX", 
        "icao": "CYGX", 
        "lat": 56.358051, 
        "lon": -94.708, 
        "name": "Gillam Airport"
    }, 
    "CYHD": {
        "alt": 1354, 
        "country": "Canada", 
        "iata": "YHD", 
        "icao": "CYHD", 
        "lat": 49.831661, 
        "lon": -92.744102, 
        "name": "Dryden Regional Airport"
    }, 
    "CYHM": {
        "alt": 780, 
        "country": "Canada", 
        "iata": "YHM", 
        "icao": "CYHM", 
        "lat": 43.173611, 
        "lon": -79.934998, 
        "name": "Hamilton John C. Munro International Airport"
    }, 
    "CYHU": {
        "alt": 90, 
        "country": "Canada", 
        "iata": "YHU", 
        "icao": "CYHU", 
        "lat": 45.517502, 
        "lon": -73.416901, 
        "name": "Montreal Saint-Hubert Airport"
    }, 
    "CYHY": {
        "alt": 543, 
        "country": "Canada", 
        "iata": "YHY", 
        "icao": "CYHY", 
        "lat": 60.839722, 
        "lon": -115.781998, 
        "name": "Hay River Merlyn Carter Airport"
    }, 
    "CYHZ": {
        "alt": 477, 
        "country": "Canada", 
        "iata": "YHZ", 
        "icao": "CYHZ", 
        "lat": 44.880829, 
        "lon": -63.508598, 
        "name": "Halifax Stanfield International Airport"
    }, 
    "CYIV": {
        "alt": 770, 
        "country": "Canada", 
        "iata": "YIV", 
        "icao": "CYIV", 
        "lat": 53.856998, 
        "lon": -94.653999, 
        "name": "Island Lake Airport"
    }, 
    "CYKA": {
        "alt": 1133, 
        "country": "Canada", 
        "iata": "YKA", 
        "icao": "CYKA", 
        "lat": 50.702221, 
        "lon": -120.444, 
        "name": "Kamloops Airport"
    }, 
    "CYKF": {
        "alt": 1054, 
        "country": "Canada", 
        "iata": "YKF", 
        "icao": "CYKF", 
        "lat": 43.460831, 
        "lon": -80.378601, 
        "name": "Region of Waterloo International Airport"
    }, 
    "CYKG": {
        "alt": 511, 
        "country": "Canada", 
        "iata": "YWB", 
        "icao": "CYKG", 
        "lat": 61.588612, 
        "lon": -71.929443, 
        "name": "Kangiqsujuaq Wakeham Bay Airport"
    }, 
    "CYKL": {
        "alt": 1709, 
        "country": "Canada", 
        "iata": "YKL", 
        "icao": "CYKL", 
        "lat": 54.805271, 
        "lon": -66.805199, 
        "name": "Schefferville Airport"
    }, 
    "CYKQ": {
        "alt": 79, 
        "country": "Canada", 
        "iata": "YKQ", 
        "icao": "CYKQ", 
        "lat": 51.47361, 
        "lon": -78.758003, 
        "name": "Waskaganish Airport"
    }, 
    "CYLL": {
        "alt": 2193, 
        "country": "Canada", 
        "iata": "YLL", 
        "icao": "CYLL", 
        "lat": 53.309158, 
        "lon": -110.071999, 
        "name": "Lloydminster Airport"
    }, 
    "CYLW": {
        "alt": 1409, 
        "country": "Canada", 
        "iata": "YLW", 
        "icao": "CYLW", 
        "lat": 49.956108, 
        "lon": -119.376999, 
        "name": "Kelowna International Airport"
    }, 
    "CYMM": {
        "alt": 1211, 
        "country": "Canada", 
        "iata": "YMM", 
        "icao": "CYMM", 
        "lat": 56.653332, 
        "lon": -111.221001, 
        "name": "Fort McMurray Airport"
    }, 
    "CYMO": {
        "alt": 30, 
        "country": "Canada", 
        "iata": "YMO", 
        "icao": "CYMO", 
        "lat": 51.291111, 
        "lon": -80.607697, 
        "name": "Moosonee Airport"
    }, 
    "CYMT": {
        "alt": 1270, 
        "country": "Canada", 
        "iata": "YMT", 
        "icao": "CYMT", 
        "lat": 49.771938, 
        "lon": -74.528, 
        "name": "Chibougamau Chapais Airport"
    }, 
    "CYMX": {
        "alt": 270, 
        "country": "Canada", 
        "iata": "YMX", 
        "icao": "CYMX", 
        "lat": 45.681938, 
        "lon": -74.005203, 
        "name": "Montreal Mirabel International Airport"
    }, 
    "CYNR": {
        "alt": 916, 
        "country": "Canada", 
        "iata": "HZP", 
        "icao": "CYNR", 
        "lat": 57.381668, 
        "lon": -111.701111, 
        "name": "Fort MacKay Horizon Airport"
    }, 
    "CYOW": {
        "alt": 374, 
        "country": "Canada", 
        "iata": "YOW", 
        "icao": "CYOW", 
        "lat": 45.322498, 
        "lon": -75.669098, 
        "name": "Ottawa Macdonald-Cartier International Airport"
    }, 
    "CYPA": {
        "alt": 1405, 
        "country": "Canada", 
        "iata": "YPA", 
        "icao": "CYPA", 
        "lat": 53.214161, 
        "lon": -105.671997, 
        "name": "Prince Albert Glass Field Airport"
    }, 
    "CYPH": {
        "alt": 83, 
        "country": "Canada", 
        "iata": "YPH", 
        "icao": "CYPH", 
        "lat": 58.471661, 
        "lon": -78.077202, 
        "name": "Inukjuak Airport"
    }, 
    "CYPR": {
        "alt": 116, 
        "country": "Canada", 
        "iata": "YPR", 
        "icao": "CYPR", 
        "lat": 54.28611, 
        "lon": -130.444, 
        "name": "Prince Rupert Airport"
    }, 
    "CYPW": {
        "alt": 425, 
        "country": "Canada", 
        "iata": "YPW", 
        "icao": "CYPW", 
        "lat": 49.816666, 
        "lon": -124.5, 
        "name": "Powell River Airport"
    }, 
    "CYPX": {
        "alt": 74, 
        "country": "Canada", 
        "iata": "YPX", 
        "icao": "CYPX", 
        "lat": 60.052223, 
        "lon": -77.287498, 
        "name": "Puvirnituq Airport"
    }, 
    "CYQB": {
        "alt": 244, 
        "country": "Canada", 
        "iata": "YQB", 
        "icao": "CYQB", 
        "lat": 46.791111, 
        "lon": -71.393303, 
        "name": "Quebec City International Airport"
    }, 
    "CYQF": {
        "alt": 2968, 
        "country": "Canada", 
        "iata": "YQF", 
        "icao": "CYQF", 
        "lat": 52.18222, 
        "lon": -113.893997, 
        "name": "Red Deer Regional Airport"
    }, 
    "CYQG": {
        "alt": 622, 
        "country": "Canada", 
        "iata": "YQG", 
        "icao": "CYQG", 
        "lat": 42.275551, 
        "lon": -82.955498, 
        "name": "Windsor International Airport"
    }, 
    "CYQK": {
        "alt": 1332, 
        "country": "Canada", 
        "iata": "YQK", 
        "icao": "CYQK", 
        "lat": 49.78833, 
        "lon": -94.362999, 
        "name": "Kenora Airport"
    }, 
    "CYQL": {
        "alt": 3047, 
        "country": "Canada", 
        "iata": "YQL", 
        "icao": "CYQL", 
        "lat": 49.630268, 
        "lon": -112.799004, 
        "name": "Lethbridge Airport"
    }, 
    "CYQM": {
        "alt": 232, 
        "country": "Canada", 
        "iata": "YQM", 
        "icao": "CYQM", 
        "lat": 46.112221, 
        "lon": -64.678596, 
        "name": "Moncton International Airport"
    }, 
    "CYQQ": {
        "alt": 84, 
        "country": "Canada", 
        "iata": "YQQ", 
        "icao": "CYQQ", 
        "lat": 49.710831, 
        "lon": -124.886002, 
        "name": "Comox Valley Airport"
    }, 
    "CYQR": {
        "alt": 1894, 
        "country": "Canada", 
        "iata": "YQR", 
        "icao": "CYQR", 
        "lat": 50.431938, 
        "lon": -104.665001, 
        "name": "Regina International Airport"
    }, 
    "CYQT": {
        "alt": 653, 
        "country": "Canada", 
        "iata": "YQT", 
        "icao": "CYQT", 
        "lat": 48.371941, 
        "lon": -89.323799, 
        "name": "Thunder Bay International Airport"
    }, 
    "CYQU": {
        "alt": 2195, 
        "country": "Canada", 
        "iata": "YQU", 
        "icao": "CYQU", 
        "lat": 55.179722, 
        "lon": -118.885002, 
        "name": "Grande Prairie Airport"
    }, 
    "CYQX": {
        "alt": 496, 
        "country": "Canada", 
        "iata": "YQX", 
        "icao": "CYQX", 
        "lat": 48.936939, 
        "lon": -54.568001, 
        "name": "Gander International Airport"
    }, 
    "CYQY": {
        "alt": 203, 
        "country": "Canada", 
        "iata": "YQY", 
        "icao": "CYQY", 
        "lat": 46.161381, 
        "lon": -60.047699, 
        "name": "Sydney J.A. Douglas McCurdy Airport"
    }, 
    "CYQZ": {
        "alt": 1789, 
        "country": "Canada", 
        "iata": "YQZ", 
        "icao": "CYQZ", 
        "lat": 53.026112, 
        "lon": -122.510002, 
        "name": "Quesnel Airport"
    }, 
    "CYRB": {
        "alt": 215, 
        "country": "Canada", 
        "iata": "YRB", 
        "icao": "CYRB", 
        "lat": 74.716942, 
        "lon": -94.969398, 
        "name": "Resolute Bay Airport"
    }, 
    "CYRL": {
        "alt": 1265, 
        "country": "Canada", 
        "iata": "YRL", 
        "icao": "CYRL", 
        "lat": 51.060001, 
        "lon": -93.790001, 
        "name": "Red Lake Airport"
    }, 
    "CYRT": {
        "alt": 94, 
        "country": "Canada", 
        "iata": "YRT", 
        "icao": "CYRT", 
        "lat": 62.81139, 
        "lon": -92.115799, 
        "name": "Rankin Inlet Airport"
    }, 
    "CYSB": {
        "alt": 1141, 
        "country": "Canada", 
        "iata": "YSB", 
        "icao": "CYSB", 
        "lat": 46.625, 
        "lon": -80.798798, 
        "name": "Sudbury Airport"
    }, 
    "CYSJ": {
        "alt": 357, 
        "country": "Canada", 
        "iata": "YSJ", 
        "icao": "CYSJ", 
        "lat": 45.316109, 
        "lon": -65.890198, 
        "name": "Saint John Airport"
    }, 
    "CYSM": {
        "alt": 671, 
        "country": "Canada", 
        "iata": "YSM", 
        "icao": "CYSM", 
        "lat": 60.020271, 
        "lon": -111.960999, 
        "name": "Fort Smith Airport"
    }, 
    "CYTH": {
        "alt": 729, 
        "country": "Canada", 
        "iata": "YTH", 
        "icao": "CYTH", 
        "lat": 55.801109, 
        "lon": -97.864098, 
        "name": "Thompson Airport"
    }, 
    "CYTQ": {
        "alt": 121, 
        "country": "Canada", 
        "iata": "YTQ", 
        "icao": "CYTQ", 
        "lat": 58.667778, 
        "lon": -69.955833, 
        "name": "Tasiujaq Airport"
    }, 
    "CYTS": {
        "alt": 967, 
        "country": "Canada", 
        "iata": "YTS", 
        "icao": "CYTS", 
        "lat": 48.569721, 
        "lon": -81.376602, 
        "name": "Timmins Airport"
    }, 
    "CYTZ": {
        "alt": 251, 
        "country": "Canada", 
        "iata": "YTZ", 
        "icao": "CYTZ", 
        "lat": 43.627491, 
        "lon": -79.396103, 
        "name": "Toronto City Billy Bishop Airport"
    }, 
    "CYUL": {
        "alt": 118, 
        "country": "Canada", 
        "iata": "YUL", 
        "icao": "CYUL", 
        "lat": 45.470551, 
        "lon": -73.740799, 
        "name": "Montreal Pierre Elliott Trudeau Airport"
    }, 
    "CYUY": {
        "alt": 988, 
        "country": "Canada", 
        "iata": "YUY", 
        "icao": "CYUY", 
        "lat": 48.206108, 
        "lon": -78.835503, 
        "name": "Rouyn Noranda Airport"
    }, 
    "CYVB": {
        "alt": 123, 
        "country": "Canada", 
        "iata": "YVB", 
        "icao": "CYVB", 
        "lat": 48.07111, 
        "lon": -65.460281, 
        "name": "Bonaventure Airport"
    }, 
    "CYVO": {
        "alt": 1107, 
        "country": "Canada", 
        "iata": "YVO", 
        "icao": "CYVO", 
        "lat": 48.053329, 
        "lon": -77.7827, 
        "name": "Val-d'Or Airport"
    }, 
    "CYVP": {
        "alt": 129, 
        "country": "Canada", 
        "iata": "YVP", 
        "icao": "CYVP", 
        "lat": 58.096111, 
        "lon": -68.426903, 
        "name": "Kuujjuaq Airport"
    }, 
    "CYVR": {
        "alt": 14, 
        "country": "Canada", 
        "iata": "YVR", 
        "icao": "CYVR", 
        "lat": 49.193878, 
        "lon": -123.183998, 
        "name": "Vancouver International Airport"
    }, 
    "CYWG": {
        "alt": 783, 
        "country": "Canada", 
        "iata": "YWG", 
        "icao": "CYWG", 
        "lat": 49.91003, 
        "lon": -97.239799, 
        "name": "Winnipeg International Airport"
    }, 
    "CYWK": {
        "alt": 1808, 
        "country": "Canada", 
        "iata": "YWK", 
        "icao": "CYWK", 
        "lat": 52.92194, 
        "lon": -66.864403, 
        "name": "Wabush Airport"
    }, 
    "CYWL": {
        "alt": 3085, 
        "country": "Canada", 
        "iata": "YWL", 
        "icao": "CYWL", 
        "lat": 52.183048, 
        "lon": -122.054001, 
        "name": "Williams Lake Airport"
    }, 
    "CYXC": {
        "alt": 3084, 
        "country": "Canada", 
        "iata": "YXC", 
        "icao": "CYXC", 
        "lat": 49.612221, 
        "lon": -115.780998, 
        "name": "Cranbrook Canadian Rockies International Airport"
    }, 
    "CYXE": {
        "alt": 1653, 
        "country": "Canada", 
        "iata": "YXE", 
        "icao": "CYXE", 
        "lat": 52.17083, 
        "lon": -106.698997, 
        "name": "Saskatoon John G. Diefenbaker International Airport"
    }, 
    "CYXH": {
        "alt": 2352, 
        "country": "Canada", 
        "iata": "YXH", 
        "icao": "CYXH", 
        "lat": 50.01889, 
        "lon": -110.720001, 
        "name": "Medicine Hat Airport"
    }, 
    "CYXJ": {
        "alt": 2280, 
        "country": "Canada", 
        "iata": "YXJ", 
        "icao": "CYXJ", 
        "lat": 56.238049, 
        "lon": -120.739998, 
        "name": "Fort St. John Airport"
    }, 
    "CYXL": {
        "alt": 1258, 
        "country": "Canada", 
        "iata": "YXL", 
        "icao": "CYXL", 
        "lat": 50.11388, 
        "lon": -91.905197, 
        "name": "Sioux Lookout Airport"
    }, 
    "CYXS": {
        "alt": 2267, 
        "country": "Canada", 
        "iata": "YXS", 
        "icao": "CYXS", 
        "lat": 53.889439, 
        "lon": -122.678001, 
        "name": "Prince George Airport"
    }, 
    "CYXT": {
        "alt": 713, 
        "country": "Canada", 
        "iata": "YXT", 
        "icao": "CYXT", 
        "lat": 54.468498, 
        "lon": -128.576004, 
        "name": "Terrace Northwest Regional Airport"
    }, 
    "CYXU": {
        "alt": 912, 
        "country": "Canada", 
        "iata": "YXU", 
        "icao": "CYXU", 
        "lat": 43.033051, 
        "lon": -81.1511, 
        "name": "London International Airport"
    }, 
    "CYXX": {
        "alt": 195, 
        "country": "Canada", 
        "iata": "YXX", 
        "icao": "CYXX", 
        "lat": 49.025269, 
        "lon": -122.360001, 
        "name": "Abbotsford International Airport"
    }, 
    "CYXY": {
        "alt": 2317, 
        "country": "Canada", 
        "iata": "YXY", 
        "icao": "CYXY", 
        "lat": 60.709549, 
        "lon": -135.067001, 
        "name": "Whitehorse International Airport"
    }, 
    "CYYB": {
        "alt": 1215, 
        "country": "Canada", 
        "iata": "YYB", 
        "icao": "CYYB", 
        "lat": 46.363609, 
        "lon": -79.422699, 
        "name": "North Bay Jack Garland Airport"
    }, 
    "CYYC": {
        "alt": 3557, 
        "country": "Canada", 
        "iata": "YYC", 
        "icao": "CYYC", 
        "lat": 51.11388, 
        "lon": -114.019997, 
        "name": "Calgary International Airport"
    }, 
    "CYYF": {
        "alt": 1129, 
        "country": "Canada", 
        "iata": "YYF", 
        "icao": "CYYF", 
        "lat": 49.463051, 
        "lon": -119.601997, 
        "name": "Penticton Regional Airport"
    }, 
    "CYYG": {
        "alt": 160, 
        "country": "Canada", 
        "iata": "YYG", 
        "icao": "CYYG", 
        "lat": 46.290001, 
        "lon": -63.121101, 
        "name": "Charlottetown Airport"
    }, 
    "CYYJ": {
        "alt": 63, 
        "country": "Canada", 
        "iata": "YYJ", 
        "icao": "CYYJ", 
        "lat": 48.646938, 
        "lon": -123.425003, 
        "name": "Victoria International Airport"
    }, 
    "CYYQ": {
        "alt": 94, 
        "country": "Canada", 
        "iata": "YYQ", 
        "icao": "CYYQ", 
        "lat": 58.739159, 
        "lon": -94.065002, 
        "name": "Churchill Airport"
    }, 
    "CYYR": {
        "alt": 160, 
        "country": "Canada", 
        "iata": "YYR", 
        "icao": "CYYR", 
        "lat": 53.31916, 
        "lon": -60.4258, 
        "name": "Goose Bay Airport"
    }, 
    "CYYT": {
        "alt": 461, 
        "country": "Canada", 
        "iata": "YYT", 
        "icao": "CYYT", 
        "lat": 47.61861, 
        "lon": -52.7519, 
        "name": "St. John's International Airport"
    }, 
    "CYYY": {
        "alt": 172, 
        "country": "Canada", 
        "iata": "YYY", 
        "icao": "CYYY", 
        "lat": 48.608608, 
        "lon": -68.208, 
        "name": "Mont-Joli Airport"
    }, 
    "CYYZ": {
        "alt": 569, 
        "country": "Canada", 
        "iata": "YYZ", 
        "icao": "CYYZ", 
        "lat": 43.677219, 
        "lon": -79.630501, 
        "name": "Toronto Pearson International Airport"
    }, 
    "CYZF": {
        "alt": 675, 
        "country": "Canada", 
        "iata": "YZF", 
        "icao": "CYZF", 
        "lat": 62.462769, 
        "lon": -114.440002, 
        "name": "Yellowknife Airport"
    }, 
    "CYZG": {
        "alt": 742, 
        "country": "Canada", 
        "iata": "YZG", 
        "icao": "CYZG", 
        "lat": 62.179443, 
        "lon": -75.667221, 
        "name": "Salluit Airport"
    }, 
    "CYZP": {
        "alt": 21, 
        "country": "Canada", 
        "iata": "YZP", 
        "icao": "CYZP", 
        "lat": 53.25433, 
        "lon": -131.813004, 
        "name": "Sandspit Airport"
    }, 
    "CYZR": {
        "alt": 594, 
        "country": "Canada", 
        "iata": "YZR", 
        "icao": "CYZR", 
        "lat": 42.999439, 
        "lon": -82.3088, 
        "name": "Sarnia Chris Hadfield Airport"
    }, 
    "CYZT": {
        "alt": 71, 
        "country": "Canada", 
        "iata": "YZT", 
        "icao": "CYZT", 
        "lat": 50.68055, 
        "lon": -127.365997, 
        "name": "Port Hardy Airport"
    }, 
    "CYZV": {
        "alt": 180, 
        "country": "Canada", 
        "iata": "YZV", 
        "icao": "CYZV", 
        "lat": 50.223331, 
        "lon": -66.265503, 
        "name": "Sept-Iles Airport"
    }, 
    "CZBF": {
        "alt": 193, 
        "country": "Canada", 
        "iata": "ZBF", 
        "icao": "CZBF", 
        "lat": 47.629719, 
        "lon": -65.7388, 
        "name": "Bathurst Airport"
    }, 
    "DAAE": {
        "alt": 20, 
        "country": "Algeria", 
        "iata": "BJA", 
        "icao": "DAAE", 
        "lat": 36.71199, 
        "lon": 5.069922, 
        "name": "Bejaia Soummam Airport"
    }, 
    "DAAG": {
        "alt": 82, 
        "country": "Algeria", 
        "iata": "ALG", 
        "icao": "DAAG", 
        "lat": 36.69101, 
        "lon": 3.215408, 
        "name": "Algiers Houari Boumediene Airport"
    }, 
    "DAAS": {
        "alt": 3330, 
        "country": "Algeria", 
        "iata": "QSF", 
        "icao": "DAAS", 
        "lat": 36.17812, 
        "lon": 5.324494, 
        "name": "Setif Ain Arnat Airport"
    }, 
    "DABB": {
        "alt": 16, 
        "country": "Algeria", 
        "iata": "AAE", 
        "icao": "DABB", 
        "lat": 36.82222, 
        "lon": 7.809167, 
        "name": "Annaba Rabah Bitat Airport"
    }, 
    "DABC": {
        "alt": 2316, 
        "country": "Algeria", 
        "iata": "CZL", 
        "icao": "DABC", 
        "lat": 36.27602, 
        "lon": 6.620386, 
        "name": "Constantine Mohamed Boudiaf International Airport"
    }, 
    "DAON": {
        "alt": 814, 
        "country": "Algeria", 
        "iata": "TLM", 
        "icao": "DAON", 
        "lat": 35.016659, 
        "lon": -1.45, 
        "name": "Tlemcen Zenata Airport"
    }, 
    "DAOO": {
        "alt": 299, 
        "country": "Algeria", 
        "iata": "ORN", 
        "icao": "DAOO", 
        "lat": 35.623852, 
        "lon": -0.62118, 
        "name": "Oran Es Senia Airport"
    }, 
    "DBBB": {
        "alt": 19, 
        "country": "Benin", 
        "iata": "COO", 
        "icao": "DBBB", 
        "lat": 6.357228, 
        "lon": 2.384353, 
        "name": "Cotonou Cadjehoun Airport"
    }, 
    "DFFD": {
        "alt": 1037, 
        "country": "Burkina Faso", 
        "iata": "OUA", 
        "icao": "DFFD", 
        "lat": 12.35319, 
        "lon": -1.51241, 
        "name": "Ouagadougou Airport"
    }, 
    "DGAA": {
        "alt": 205, 
        "country": "Ghana", 
        "iata": "ACC", 
        "icao": "DGAA", 
        "lat": 5.605186, 
        "lon": -0.16678, 
        "name": "Accra Kotoka International Airport"
    }, 
    "DGLE": {
        "alt": 553, 
        "country": "Ghana", 
        "iata": "TML", 
        "icao": "DGLE", 
        "lat": 9.557192, 
        "lon": -0.86321, 
        "name": "Tamale Airport"
    }, 
    "DIAP": {
        "alt": 21, 
        "country": "Cote D'ivoire (Ivory Coast)", 
        "iata": "ABJ", 
        "icao": "DIAP", 
        "lat": 5.261386, 
        "lon": -3.92629, 
        "name": "Abidjan Port Bouet Airport"
    }, 
    "DNAA": {
        "alt": 1123, 
        "country": "Nigeria", 
        "iata": "ABV", 
        "icao": "DNAA", 
        "lat": 9.006792, 
        "lon": 7.263172, 
        "name": "Abuja Nnamdi Azikiwe International Airport"
    }, 
    "DNKN": {
        "alt": 1562, 
        "country": "Nigeria", 
        "iata": "KAN", 
        "icao": "DNKN", 
        "lat": 12.04758, 
        "lon": 8.524622, 
        "name": "Kano Mallam Aminu International Airport"
    }, 
    "DNMM": {
        "alt": 135, 
        "country": "Nigeria", 
        "iata": "LOS", 
        "icao": "DNMM", 
        "lat": 6.577369, 
        "lon": 3.321156, 
        "name": "Lagos Murtala Mohammed Airport"
    }, 
    "DSGI": {
        "alt": 942, 
        "country": "Ghana", 
        "iata": "KMS", 
        "icao": "DSGI", 
        "lat": 6.714564, 
        "lon": -1.59081, 
        "name": "Kumasi Airport"
    }, 
    "DTMB": {
        "alt": 9, 
        "country": "Tunisia", 
        "iata": "MIR", 
        "icao": "DTMB", 
        "lat": 35.758049, 
        "lon": 10.75472, 
        "name": "Monastir Habib Bourguiba International Airport"
    }, 
    "DTNH": {
        "alt": 130, 
        "country": "Tunisia", 
        "iata": "NBE", 
        "icao": "DTNH", 
        "lat": 36.091946, 
        "lon": 10.413889, 
        "name": "Enfidha \u2013 Hammamet International Airport"
    }, 
    "DTTA": {
        "alt": 22, 
        "country": "Tunisia", 
        "iata": "TUN", 
        "icao": "DTTA", 
        "lat": 36.851028, 
        "lon": 10.22721, 
        "name": "Tunis Carthage International Airport"
    }, 
    "DTTJ": {
        "alt": 19, 
        "country": "Tunisia", 
        "iata": "DJE", 
        "icao": "DTTJ", 
        "lat": 33.875031, 
        "lon": 10.77546, 
        "name": "Djerba Zarzis International Airport"
    }, 
    "DTTX": {
        "alt": 85, 
        "country": "Tunisia", 
        "iata": "SFA", 
        "icao": "DTTX", 
        "lat": 34.717949, 
        "lon": 10.69097, 
        "name": "Sfax\u2013Thyna International Airport"
    }, 
    "DXXX": {
        "alt": 72, 
        "country": "Togo", 
        "iata": "LFW", 
        "icao": "DXXX", 
        "lat": 6.165611, 
        "lon": 1.254511, 
        "name": "Lome Tokoin Airport"
    }, 
    "EBAW": {
        "alt": 39, 
        "country": "Belgium", 
        "iata": "ANR", 
        "icao": "EBAW", 
        "lat": 51.189442, 
        "lon": 4.460278, 
        "name": "Antwerp International Airport"
    }, 
    "EBBR": {
        "alt": 184, 
        "country": "Belgium", 
        "iata": "BRU", 
        "icao": "EBBR", 
        "lat": 50.901379, 
        "lon": 4.484444, 
        "name": "Brussels Airport"
    }, 
    "EBCI": {
        "alt": 614, 
        "country": "Belgium", 
        "iata": "CRL", 
        "icao": "EBCI", 
        "lat": 50.459999, 
        "lon": 4.452778, 
        "name": "Brussels South Charleroi Airport"
    }, 
    "EBLG": {
        "alt": 659, 
        "country": "Belgium", 
        "iata": "LGG", 
        "icao": "EBLG", 
        "lat": 50.636379, 
        "lon": 5.442778, 
        "name": "Liege Airport"
    }, 
    "EBOS": {
        "alt": 13, 
        "country": "Belgium", 
        "iata": "OST", 
        "icao": "EBOS", 
        "lat": 51.198879, 
        "lon": 2.862222, 
        "name": "Ostend Bruges International Airport"
    }, 
    "EDAH": {
        "alt": 93, 
        "country": "Germany", 
        "iata": "HDF", 
        "icao": "EDAH", 
        "lat": 53.87825, 
        "lon": 14.138242, 
        "name": "Heringsdorf Airport"
    }, 
    "EDBC": {
        "alt": 596, 
        "country": "Germany", 
        "iata": "CSO", 
        "icao": "EDBC", 
        "lat": 51.855831, 
        "lon": 11.418333, 
        "name": "Magdeburg Cochstedt Airport"
    }, 
    "EDDB": {
        "alt": 157, 
        "country": "Germany", 
        "iata": "SXF", 
        "icao": "EDDB", 
        "lat": 52.380001, 
        "lon": 13.5225, 
        "name": "Berlin Schonefeld Airport"
    }, 
    "EDDC": {
        "alt": 755, 
        "country": "Germany", 
        "iata": "DRS", 
        "icao": "EDDC", 
        "lat": 51.132759, 
        "lon": 13.76716, 
        "name": "Dresden Airport"
    }, 
    "EDDE": {
        "alt": 1036, 
        "country": "Germany", 
        "iata": "ERF", 
        "icao": "EDDE", 
        "lat": 50.979809, 
        "lon": 10.9581, 
        "name": "Erfurt Weimar Airport"
    }, 
    "EDDF": {
        "alt": 364, 
        "country": "Germany", 
        "iata": "FRA", 
        "icao": "EDDF", 
        "lat": 50.026421, 
        "lon": 8.543125, 
        "name": "Frankfurt Airport"
    }, 
    "EDDG": {
        "alt": 160, 
        "country": "Germany", 
        "iata": "FMO", 
        "icao": "EDDG", 
        "lat": 52.13464, 
        "lon": 7.684831, 
        "name": "Munster Osnabruck International \u00a0Airport"
    }, 
    "EDDH": {
        "alt": 53, 
        "country": "Germany", 
        "iata": "HAM", 
        "icao": "EDDH", 
        "lat": 53.630379, 
        "lon": 9.988228, 
        "name": "Hamburg Airport"
    }, 
    "EDDK": {
        "alt": 302, 
        "country": "Germany", 
        "iata": "CGN", 
        "icao": "EDDK", 
        "lat": 50.866001, 
        "lon": 7.143, 
        "name": "Cologne Bonn Airport"
    }, 
    "EDDL": {
        "alt": 147, 
        "country": "Germany", 
        "iata": "DUS", 
        "icao": "EDDL", 
        "lat": 51.289452, 
        "lon": 6.766775, 
        "name": "Dusseldorf International Airport"
    }, 
    "EDDM": {
        "alt": 1487, 
        "country": "Germany", 
        "iata": "MUC", 
        "icao": "EDDM", 
        "lat": 48.353779, 
        "lon": 11.78608, 
        "name": "Munich Airport"
    }, 
    "EDDN": {
        "alt": 1046, 
        "country": "Germany", 
        "iata": "NUE", 
        "icao": "EDDN", 
        "lat": 49.498699, 
        "lon": 11.06689, 
        "name": "Nuremberg Airport"
    }, 
    "EDDP": {
        "alt": 465, 
        "country": "Germany", 
        "iata": "LEJ", 
        "icao": "EDDP", 
        "lat": 51.432442, 
        "lon": 12.24163, 
        "name": "Leipzig Halle Airport"
    }, 
    "EDDR": {
        "alt": 1058, 
        "country": "Germany", 
        "iata": "SCN", 
        "icao": "EDDR", 
        "lat": 49.21455, 
        "lon": 7.109508, 
        "name": "Saarbrucken Airport"
    }, 
    "EDDS": {
        "alt": 1276, 
        "country": "Germany", 
        "iata": "STR", 
        "icao": "EDDS", 
        "lat": 48.689869, 
        "lon": 9.221964, 
        "name": "Stuttgart Airport"
    }, 
    "EDDT": {
        "alt": 122, 
        "country": "Germany", 
        "iata": "TXL", 
        "icao": "EDDT", 
        "lat": 52.560001, 
        "lon": 13.288, 
        "name": "Berlin Tegel Airport"
    }, 
    "EDDV": {
        "alt": 183, 
        "country": "Germany", 
        "iata": "HAJ", 
        "icao": "EDDV", 
        "lat": 52.461048, 
        "lon": 9.685078, 
        "name": "Hannover Langenhagen Airport"
    }, 
    "EDDW": {
        "alt": 14, 
        "country": "Germany", 
        "iata": "BRE", 
        "icao": "EDDW", 
        "lat": 53.047501, 
        "lon": 8.786667, 
        "name": "Bremen Airport"
    }, 
    "EDFH": {
        "alt": 1649, 
        "country": "Germany", 
        "iata": "HHN", 
        "icao": "EDFH", 
        "lat": 49.948669, 
        "lon": 7.263892, 
        "name": "Frankfurt Hahn Airport"
    }, 
    "EDHI": {
        "alt": 22, 
        "country": "Germany", 
        "iata": "XFW", 
        "icao": "EDHI", 
        "lat": 53.529999, 
        "lon": 9.83, 
        "name": "Hamburg Finkenwerder Airport"
    }, 
    "EDHL": {
        "alt": 53, 
        "country": "Germany", 
        "iata": "LBC", 
        "icao": "EDHL", 
        "lat": 53.805359, 
        "lon": 10.71922, 
        "name": "Lubeck Airport"
    }, 
    "EDJA": {
        "alt": 2077, 
        "country": "Germany", 
        "iata": "FMM", 
        "icao": "EDJA", 
        "lat": 47.988609, 
        "lon": 10.239444, 
        "name": "Memmingen Airport"
    }, 
    "EDLP": {
        "alt": 699, 
        "country": "Germany", 
        "iata": "PAD", 
        "icao": "EDLP", 
        "lat": 51.614079, 
        "lon": 8.616317, 
        "name": "Paderborn Lippstadt Airport"
    }, 
    "EDLV": {
        "alt": 106, 
        "country": "Germany", 
        "iata": "NRN", 
        "icao": "EDLV", 
        "lat": 51.602409, 
        "lon": 6.142172, 
        "name": "Weeze Airport"
    }, 
    "EDLW": {
        "alt": 425, 
        "country": "Germany", 
        "iata": "DTM", 
        "icao": "EDLW", 
        "lat": 51.518311, 
        "lon": 7.612242, 
        "name": "Dortmund Airport"
    }, 
    "EDNY": {
        "alt": 1367, 
        "country": "Germany", 
        "iata": "FDH", 
        "icao": "EDNY", 
        "lat": 47.67131, 
        "lon": 9.511486, 
        "name": "Friedrichshafen Airport"
    }, 
    "EDRZ": {
        "alt": 1133, 
        "country": "Germany", 
        "iata": "ZQW", 
        "icao": "EDRZ", 
        "lat": 49.209518, 
        "lon": 7.400647, 
        "name": "Zweibrucken Airport"
    }, 
    "EDSB": {
        "alt": 408, 
        "country": "Germany", 
        "iata": "FKB", 
        "icao": "EDSB", 
        "lat": 48.77935, 
        "lon": 8.0805, 
        "name": "Karlsruhe/Baden-Baden Airport"
    }, 
    "EDVE": {
        "alt": 295, 
        "country": "Germany", 
        "iata": "BWE", 
        "icao": "EDVE", 
        "lat": 52.31916, 
        "lon": 10.55611, 
        "name": "Braunschweig Airport"
    }, 
    "EDVK": {
        "alt": 908, 
        "country": "Germany", 
        "iata": "KSF", 
        "icao": "EDVK", 
        "lat": 51.420834, 
        "lon": 9.392222, 
        "name": "Kassel Calden Airport"
    }, 
    "EDXW": {
        "alt": 51, 
        "country": "Germany", 
        "iata": "GWT", 
        "icao": "EDXW", 
        "lat": 54.91325, 
        "lon": 8.340472, 
        "name": "Sylt Airport"
    }, 
    "EEKA": {
        "alt": 18, 
        "country": "Estonia", 
        "iata": "KDL", 
        "icao": "EEKA", 
        "lat": 58.990749, 
        "lon": 22.83073, 
        "name": "Kardla Airport"
    }, 
    "EEKE": {
        "alt": 14, 
        "country": "Estonia", 
        "iata": "URE", 
        "icao": "EEKE", 
        "lat": 58.229881, 
        "lon": 22.509489, 
        "name": "Kuressaare Airport"
    }, 
    "EETN": {
        "alt": 131, 
        "country": "Estonia", 
        "iata": "TLL", 
        "icao": "EETN", 
        "lat": 59.413311, 
        "lon": 24.83284, 
        "name": "Tallinn Lennart Meri Airport "
    }, 
    "EETU": {
        "alt": 219, 
        "country": "Estonia", 
        "iata": "TAY", 
        "icao": "EETU", 
        "lat": 58.307461, 
        "lon": 26.69042, 
        "name": "Tartu Airport"
    }, 
    "EFHK": {
        "alt": 179, 
        "country": "Finland", 
        "iata": "HEL", 
        "icao": "EFHK", 
        "lat": 60.317219, 
        "lon": 24.963329, 
        "name": "Helsinki Vantaa Airport"
    }, 
    "EFIV": {
        "alt": 481, 
        "country": "Finland", 
        "iata": "IVL", 
        "icao": "EFIV", 
        "lat": 68.607262, 
        "lon": 27.405319, 
        "name": "Ivalo Airport"
    }, 
    "EFJO": {
        "alt": 398, 
        "country": "Finland", 
        "iata": "JOE", 
        "icao": "EFJO", 
        "lat": 62.662899, 
        "lon": 29.60755, 
        "name": "Joensuu Airport"
    }, 
    "EFJY": {
        "alt": 459, 
        "country": "Finland", 
        "iata": "JYV", 
        "icao": "EFJY", 
        "lat": 62.399448, 
        "lon": 25.678249, 
        "name": "Jyvaskyla Airport"
    }, 
    "EFKE": {
        "alt": 61, 
        "country": "Finland", 
        "iata": "KEM", 
        "icao": "EFKE", 
        "lat": 65.781883, 
        "lon": 24.5991, 
        "name": "Kemi Tornio Airport"
    }, 
    "EFKI": {
        "alt": 483, 
        "country": "Finland", 
        "iata": "KAJ", 
        "icao": "EFKI", 
        "lat": 64.285469, 
        "lon": 27.69241, 
        "name": "Kajaani Airport"
    }, 
    "EFKK": {
        "alt": 84, 
        "country": "Finland", 
        "iata": "KOK", 
        "icao": "EFKK", 
        "lat": 63.721169, 
        "lon": 23.143129, 
        "name": "Kokkola-Pietarsaari Airport"
    }, 
    "EFKS": {
        "alt": 866, 
        "country": "Finland", 
        "iata": "KAO", 
        "icao": "EFKS", 
        "lat": 65.987572, 
        "lon": 29.23938, 
        "name": "Kuusamo Airport"
    }, 
    "EFKT": {
        "alt": 644, 
        "country": "Finland", 
        "iata": "KTT", 
        "icao": "EFKT", 
        "lat": 67.701019, 
        "lon": 24.846849, 
        "name": "Kittila Airport"
    }, 
    "EFKU": {
        "alt": 323, 
        "country": "Finland", 
        "iata": "KUO", 
        "icao": "EFKU", 
        "lat": 63.007149, 
        "lon": 27.79775, 
        "name": "Kuopio Airport"
    }, 
    "EFLP": {
        "alt": 349, 
        "country": "Finland", 
        "iata": "LPP", 
        "icao": "EFLP", 
        "lat": 61.044552, 
        "lon": 28.14439, 
        "name": "Lappeenranta Airport"
    }, 
    "EFMA": {
        "alt": 17, 
        "country": "Finland", 
        "iata": "MHQ", 
        "icao": "EFMA", 
        "lat": 60.1222, 
        "lon": 19.898149, 
        "name": "Mariehamn Airport"
    }, 
    "EFOU": {
        "alt": 47, 
        "country": "Finland", 
        "iata": "OUL", 
        "icao": "EFOU", 
        "lat": 64.929161, 
        "lon": 25.355551, 
        "name": "Oulu Airport"
    }, 
    "EFPO": {
        "alt": 44, 
        "country": "Finland", 
        "iata": "POR", 
        "icao": "EFPO", 
        "lat": 61.461681, 
        "lon": 21.79998, 
        "name": "Pori Airport"
    }, 
    "EFRO": {
        "alt": 645, 
        "country": "Finland", 
        "iata": "RVN", 
        "icao": "EFRO", 
        "lat": 66.561661, 
        "lon": 25.83083, 
        "name": "Rovaniemi Airport"
    }, 
    "EFTP": {
        "alt": 390, 
        "country": "Finland", 
        "iata": "TMP", 
        "icao": "EFTP", 
        "lat": 61.415272, 
        "lon": 23.58777, 
        "name": "Tampere Pirkkala Airport"
    }, 
    "EFTU": {
        "alt": 161, 
        "country": "Finland", 
        "iata": "TKU", 
        "icao": "EFTU", 
        "lat": 60.514141, 
        "lon": 22.2628, 
        "name": "Turku Airport"
    }, 
    "EFVA": {
        "alt": 19, 
        "country": "Finland", 
        "iata": "VAA", 
        "icao": "EFVA", 
        "lat": 63.050652, 
        "lon": 21.762171, 
        "name": "Vaasa Airport"
    }, 
    "EGAA": {
        "alt": 268, 
        "country": "United Kingdom", 
        "iata": "BFS", 
        "icao": "EGAA", 
        "lat": 54.657501, 
        "lon": -6.21583, 
        "name": "Belfast International Airport"
    }, 
    "EGAC": {
        "alt": 15, 
        "country": "United Kingdom", 
        "iata": "BHD", 
        "icao": "EGAC", 
        "lat": 54.61805, 
        "lon": -5.8725, 
        "name": "Belfast City George Best  Airport"
    }, 
    "EGAE": {
        "alt": 22, 
        "country": "United Kingdom", 
        "iata": "LDY", 
        "icao": "EGAE", 
        "lat": 55.04277, 
        "lon": -7.16111, 
        "name": "City of Derry Airport"
    }, 
    "EGBB": {
        "alt": 327, 
        "country": "United Kingdom", 
        "iata": "BHX", 
        "icao": "EGBB", 
        "lat": 52.45385, 
        "lon": -1.74802, 
        "name": "Birmingham Airport"
    }, 
    "EGBJ": {
        "alt": 101, 
        "country": "United Kingdom", 
        "iata": "GLO", 
        "icao": "EGBJ", 
        "lat": 51.894161, 
        "lon": -2.16722, 
        "name": "Gloucester Gloucestershire Airport"
    }, 
    "EGCC": {
        "alt": 257, 
        "country": "United Kingdom", 
        "iata": "MAN", 
        "icao": "EGCC", 
        "lat": 53.353741, 
        "lon": -2.27495, 
        "name": "Manchester Airport"
    }, 
    "EGCN": {
        "alt": 55, 
        "country": "United Kingdom", 
        "iata": "DSA", 
        "icao": "EGCN", 
        "lat": 53.47472, 
        "lon": -1.00444, 
        "name": "Doncaster Sheffield Robin Hood Airport"
    }, 
    "EGFF": {
        "alt": 220, 
        "country": "United Kingdom", 
        "iata": "CWL", 
        "icao": "EGFF", 
        "lat": 51.39666, 
        "lon": -3.34333, 
        "name": "Cardiff Airport"
    }, 
    "EGGD": {
        "alt": 622, 
        "country": "United Kingdom", 
        "iata": "BRS", 
        "icao": "EGGD", 
        "lat": 51.38266, 
        "lon": -2.71908, 
        "name": "Bristol Airport"
    }, 
    "EGGP": {
        "alt": 80, 
        "country": "United Kingdom", 
        "iata": "LPL", 
        "icao": "EGGP", 
        "lat": 53.333611, 
        "lon": -2.84972, 
        "name": "Liverpool John Lennon Airport"
    }, 
    "EGGW": {
        "alt": 526, 
        "country": "United Kingdom", 
        "iata": "LTN", 
        "icao": "EGGW", 
        "lat": 51.874722, 
        "lon": -0.36833, 
        "name": "London Luton Airport"
    }, 
    "EGHE": {
        "alt": 156, 
        "country": "United Kingdom", 
        "iata": "ISC", 
        "icao": "EGHE", 
        "lat": 49.91333, 
        "lon": -6.29166, 
        "name": "Isles of Scilly St Mary's Airport"
    }, 
    "EGHH": {
        "alt": 38, 
        "country": "United Kingdom", 
        "iata": "BOH", 
        "icao": "EGHH", 
        "lat": 50.779999, 
        "lon": -1.8425, 
        "name": "Bournemouth Airport"
    }, 
    "EGHI": {
        "alt": 44, 
        "country": "United Kingdom", 
        "iata": "SOU", 
        "icao": "EGHI", 
        "lat": 50.95026, 
        "lon": -1.3568, 
        "name": "Southampton Airport"
    }, 
    "EGHQ": {
        "alt": 390, 
        "country": "United Kingdom", 
        "iata": "NQY", 
        "icao": "EGHQ", 
        "lat": 50.440552, 
        "lon": -4.9954, 
        "name": "Newquay Cornwall Airport"
    }, 
    "EGJA": {
        "alt": 290, 
        "country": "United Kingdom", 
        "iata": "ACI", 
        "icao": "EGJA", 
        "lat": 49.706108, 
        "lon": -2.21472, 
        "name": "Alderney Airport"
    }, 
    "EGJB": {
        "alt": 336, 
        "country": "United Kingdom", 
        "iata": "GCI", 
        "icao": "EGJB", 
        "lat": 49.434952, 
        "lon": -2.60196, 
        "name": "Guernsey Airport"
    }, 
    "EGJJ": {
        "alt": 277, 
        "country": "United Kingdom", 
        "iata": "JER", 
        "icao": "EGJJ", 
        "lat": 49.207939, 
        "lon": -2.1955, 
        "name": "Jersey Airport"
    }, 
    "EGKB": {
        "alt": 598, 
        "country": "United Kingdom", 
        "iata": "BQH", 
        "icao": "EGKB", 
        "lat": 51.33083, 
        "lon": 0.0325, 
        "name": "London Biggin Hill Airport"
    }, 
    "EGKK": {
        "alt": 202, 
        "country": "United Kingdom", 
        "iata": "LGW", 
        "icao": "EGKK", 
        "lat": 51.148048, 
        "lon": -0.19027, 
        "name": "London Gatwick Airport"
    }, 
    "EGLC": {
        "alt": 19, 
        "country": "United Kingdom", 
        "iata": "LCY", 
        "icao": "EGLC", 
        "lat": 51.505268, 
        "lon": 0.055278, 
        "name": "London City Airport"
    }, 
    "EGLF": {
        "alt": 238, 
        "country": "United Kingdom", 
        "iata": "FAB", 
        "icao": "EGLF", 
        "lat": 51.275829, 
        "lon": -0.77633, 
        "name": "Farnborough Airport"
    }, 
    "EGLL": {
        "alt": 83, 
        "country": "United Kingdom", 
        "iata": "LHR", 
        "icao": "EGLL", 
        "lat": 51.477501, 
        "lon": -0.46138, 
        "name": "London Heathrow Airport"
    }, 
    "EGMC": {
        "alt": 49, 
        "country": "United Kingdom", 
        "iata": "SEN", 
        "icao": "EGMC", 
        "lat": 51.571381, 
        "lon": 0.695556, 
        "name": "London Southend Airport"
    }, 
    "EGNH": {
        "alt": 34, 
        "country": "United Kingdom", 
        "iata": "BLK", 
        "icao": "EGNH", 
        "lat": 53.77166, 
        "lon": -3.02861, 
        "name": "Blackpool International Airport"
    }, 
    "EGNJ": {
        "alt": 121, 
        "country": "United Kingdom", 
        "iata": "HUY", 
        "icao": "EGNJ", 
        "lat": 53.57444, 
        "lon": -0.35083, 
        "name": "Humberside Airport"
    }, 
    "EGNM": {
        "alt": 681, 
        "country": "United Kingdom", 
        "iata": "LBA", 
        "icao": "EGNM", 
        "lat": 53.865891, 
        "lon": -1.66056, 
        "name": "Leeds Bradford International Airport"
    }, 
    "EGNS": {
        "alt": 52, 
        "country": "United Kingdom", 
        "iata": "IOM", 
        "icao": "EGNS", 
        "lat": 54.083328, 
        "lon": -4.62388, 
        "name": "Isle of Man Airport"
    }, 
    "EGNT": {
        "alt": 266, 
        "country": "United Kingdom", 
        "iata": "NCL", 
        "icao": "EGNT", 
        "lat": 55.037498, 
        "lon": -1.69166, 
        "name": "Newcastle Airport"
    }, 
    "EGNV": {
        "alt": 120, 
        "country": "United Kingdom", 
        "iata": "MME", 
        "icao": "EGNV", 
        "lat": 54.509178, 
        "lon": -1.4294, 
        "name": "Darlington Durham Tees Valley Airport"
    }, 
    "EGNX": {
        "alt": 306, 
        "country": "United Kingdom", 
        "iata": "EMA", 
        "icao": "EGNX", 
        "lat": 52.831108, 
        "lon": -1.32805, 
        "name": "East Midlands Airport"
    }, 
    "EGPA": {
        "alt": 50, 
        "country": "United Kingdom", 
        "iata": "KOI", 
        "icao": "EGPA", 
        "lat": 58.957771, 
        "lon": -2.905, 
        "name": "Kirkwall Airport"
    }, 
    "EGPB": {
        "alt": 20, 
        "country": "United Kingdom", 
        "iata": "LSI", 
        "icao": "EGPB", 
        "lat": 59.87888, 
        "lon": -1.29555, 
        "name": "Sumburgh Airport"
    }, 
    "EGPC": {
        "alt": 126, 
        "country": "United Kingdom", 
        "iata": "WIC", 
        "icao": "EGPC", 
        "lat": 58.458881, 
        "lon": -3.09305, 
        "name": "Wick Airport"
    }, 
    "EGPD": {
        "alt": 215, 
        "country": "United Kingdom", 
        "iata": "ABZ", 
        "icao": "EGPD", 
        "lat": 57.201939, 
        "lon": -2.19777, 
        "name": "Aberdeen International Airport"
    }, 
    "EGPE": {
        "alt": 31, 
        "country": "United Kingdom", 
        "iata": "INV", 
        "icao": "EGPE", 
        "lat": 57.5425, 
        "lon": -4.0475, 
        "name": "Inverness Airport"
    }, 
    "EGPF": {
        "alt": 26, 
        "country": "United Kingdom", 
        "iata": "GLA", 
        "icao": "EGPF", 
        "lat": 55.871941, 
        "lon": -4.43305, 
        "name": "Glasgow International Airport"
    }, 
    "EGPH": {
        "alt": 135, 
        "country": "United Kingdom", 
        "iata": "EDI", 
        "icao": "EGPH", 
        "lat": 55.950001, 
        "lon": -3.3725, 
        "name": "Edinburgh Airport"
    }, 
    "EGPK": {
        "alt": 65, 
        "country": "United Kingdom", 
        "iata": "PIK", 
        "icao": "EGPK", 
        "lat": 55.509441, 
        "lon": -4.58666, 
        "name": "Glasgow Prestwick Airport"
    }, 
    "EGPL": {
        "alt": 19, 
        "country": "United Kingdom", 
        "iata": "BEB", 
        "icao": "EGPL", 
        "lat": 57.48111, 
        "lon": -7.36277, 
        "name": "Benbecula Airport"
    }, 
    "EGPN": {
        "alt": 17, 
        "country": "United Kingdom", 
        "iata": "DND", 
        "icao": "EGPN", 
        "lat": 56.452492, 
        "lon": -3.02583, 
        "name": "Dundee Airport"
    }, 
    "EGPO": {
        "alt": 26, 
        "country": "United Kingdom", 
        "iata": "SYY", 
        "icao": "EGPO", 
        "lat": 58.215549, 
        "lon": -6.33111, 
        "name": "Stornoway Airport"
    }, 
    "EGSC": {
        "alt": 47, 
        "country": "United Kingdom", 
        "iata": "CBG", 
        "icao": "EGSC", 
        "lat": 52.205002, 
        "lon": 0.175, 
        "name": "Cambridge Airport"
    }, 
    "EGSH": {
        "alt": 117, 
        "country": "United Kingdom", 
        "iata": "NWI", 
        "icao": "EGSH", 
        "lat": 52.675831, 
        "lon": 1.282778, 
        "name": "Norwich International Airport"
    }, 
    "EGSS": {
        "alt": 348, 
        "country": "United Kingdom", 
        "iata": "STN", 
        "icao": "EGSS", 
        "lat": 51.884998, 
        "lon": 0.235, 
        "name": "London Stansted Airport"
    }, 
    "EGTE": {
        "alt": 102, 
        "country": "United Kingdom", 
        "iata": "EXT", 
        "icao": "EGTE", 
        "lat": 50.73444, 
        "lon": -3.41388, 
        "name": "Exeter International Airport"
    }, 
    "EGTK": {
        "alt": 270, 
        "country": "United Kingdom", 
        "iata": "OXF", 
        "icao": "EGTK", 
        "lat": 51.836941, 
        "lon": -1.32, 
        "name": "London Oxford Airport"
    }, 
    "EGVN": {
        "alt": 288, 
        "country": "United Kingdom", 
        "iata": "BZZ", 
        "icao": "EGVN", 
        "lat": 51.749962, 
        "lon": -1.58361, 
        "name": "RAF Brize Norton"
    }, 
    "EHAM": {
        "alt": 11, 
        "country": "Netherlands", 
        "iata": "AMS", 
        "icao": "EHAM", 
        "lat": 52.308609, 
        "lon": 4.763889, 
        "name": "Amsterdam Schiphol Airport"
    }, 
    "EHBK": {
        "alt": 375, 
        "country": "Netherlands", 
        "iata": "MST", 
        "icao": "EHBK", 
        "lat": 50.911652, 
        "lon": 5.770144, 
        "name": "Maastricht Aachen Airport"
    }, 
    "EHEH": {
        "alt": 74, 
        "country": "Netherlands", 
        "iata": "EIN", 
        "icao": "EHEH", 
        "lat": 51.45013, 
        "lon": 5.374528, 
        "name": "Eindhoven Airport"
    }, 
    "EHGG": {
        "alt": 17, 
        "country": "Netherlands", 
        "iata": "GRQ", 
        "icao": "EHGG", 
        "lat": 53.11972, 
        "lon": 6.579444, 
        "name": "Groningen Airport Eelde"
    }, 
    "EHRD": {
        "alt": 15, 
        "country": "Netherlands", 
        "iata": "RTM", 
        "icao": "EHRD", 
        "lat": 51.95694, 
        "lon": 4.437222, 
        "name": "Rotterdam The Hague Airport"
    }, 
    "EICK": {
        "alt": 502, 
        "country": "Ireland", 
        "iata": "ORK", 
        "icao": "EICK", 
        "lat": 51.841381, 
        "lon": -8.49111, 
        "name": "Cork Airport"
    }, 
    "EIDL": {
        "alt": 30, 
        "country": "Ireland", 
        "iata": "CFN", 
        "icao": "EIDL", 
        "lat": 55.044189, 
        "lon": -8.341, 
        "name": "Donegal Airport"
    }, 
    "EIDW": {
        "alt": 242, 
        "country": "Ireland", 
        "iata": "DUB", 
        "icao": "EIDW", 
        "lat": 53.421379, 
        "lon": -6.27, 
        "name": "Dublin Airport"
    }, 
    "EIKN": {
        "alt": 665, 
        "country": "Ireland", 
        "iata": "NOC", 
        "icao": "EIKN", 
        "lat": 53.91029, 
        "lon": -8.81849, 
        "name": "Knock Ireland West Airport"
    }, 
    "EIKY": {
        "alt": 112, 
        "country": "Ireland", 
        "iata": "KIR", 
        "icao": "EIKY", 
        "lat": 52.18087, 
        "lon": -9.52378, 
        "name": "Kerry Airport"
    }, 
    "EINN": {
        "alt": 46, 
        "country": "Ireland", 
        "iata": "SNN", 
        "icao": "EINN", 
        "lat": 52.701969, 
        "lon": -8.92481, 
        "name": "Shannon Airport"
    }, 
    "EIWF": {
        "alt": 119, 
        "country": "Ireland", 
        "iata": "WAT", 
        "icao": "EIWF", 
        "lat": 52.187199, 
        "lon": -7.08696, 
        "name": "Waterford Airport"
    }, 
    "EKAH": {
        "alt": 82, 
        "country": "Denmark", 
        "iata": "AAR", 
        "icao": "EKAH", 
        "lat": 56.300011, 
        "lon": 10.619, 
        "name": "Aarhus Airport"
    }, 
    "EKBI": {
        "alt": 247, 
        "country": "Denmark", 
        "iata": "BLL", 
        "icao": "EKBI", 
        "lat": 55.740318, 
        "lon": 9.151778, 
        "name": "Billund Airport"
    }, 
    "EKCH": {
        "alt": 17, 
        "country": "Denmark", 
        "iata": "CPH", 
        "icao": "EKCH", 
        "lat": 55.617908, 
        "lon": 12.65597, 
        "name": "Copenhagen Airport"
    }, 
    "EKEB": {
        "alt": 97, 
        "country": "Denmark", 
        "iata": "EBJ", 
        "icao": "EKEB", 
        "lat": 55.52594, 
        "lon": 8.553403, 
        "name": "Esbjerg Airport"
    }, 
    "EKKA": {
        "alt": 171, 
        "country": "Denmark", 
        "iata": "KRP", 
        "icao": "EKKA", 
        "lat": 56.297451, 
        "lon": 9.124628, 
        "name": "Karup Airport"
    }, 
    "EKOD": {
        "alt": 56, 
        "country": "Denmark", 
        "iata": "ODE", 
        "icao": "EKOD", 
        "lat": 55.476662, 
        "lon": 10.33093, 
        "name": "Odense Hans Christian Andersen Airport"
    }, 
    "EKRN": {
        "alt": 52, 
        "country": "Denmark", 
        "iata": "RNN", 
        "icao": "EKRN", 
        "lat": 55.063259, 
        "lon": 14.75955, 
        "name": "Bornholm Airport"
    }, 
    "EKSB": {
        "alt": 24, 
        "country": "Denmark", 
        "iata": "SGD", 
        "icao": "EKSB", 
        "lat": 54.964359, 
        "lon": 9.791731, 
        "name": "Sonderborg Airport"
    }, 
    "EKVG": {
        "alt": 280, 
        "country": "Faroe Islands", 
        "iata": "FAE", 
        "icao": "EKVG", 
        "lat": 62.063622, 
        "lon": -7.27721, 
        "name": "Vagar Airport"
    }, 
    "EKYT": {
        "alt": 10, 
        "country": "Denmark", 
        "iata": "AAL", 
        "icao": "EKYT", 
        "lat": 57.092781, 
        "lon": 9.849164, 
        "name": "Aalborg Airport"
    }, 
    "ELLX": {
        "alt": 1234, 
        "country": "Luxembourg", 
        "iata": "LUX", 
        "icao": "ELLX", 
        "lat": 49.623329, 
        "lon": 6.204444, 
        "name": "Luxembourg Findel Airport"
    }, 
    "ENAL": {
        "alt": 69, 
        "country": "Norway", 
        "iata": "AES", 
        "icao": "ENAL", 
        "lat": 62.560371, 
        "lon": 6.110164, 
        "name": "Alesund Vigra Airport"
    }, 
    "ENAN": {
        "alt": 43, 
        "country": "Norway", 
        "iata": "ANX", 
        "icao": "ENAN", 
        "lat": 69.292503, 
        "lon": 16.144159, 
        "name": "Andenes Andoya Airport"
    }, 
    "ENAT": {
        "alt": 9, 
        "country": "Norway", 
        "iata": "ALF", 
        "icao": "ENAT", 
        "lat": 69.976112, 
        "lon": 23.37166, 
        "name": "Alta Airport"
    }, 
    "ENBN": {
        "alt": 25, 
        "country": "Norway", 
        "iata": "BNN", 
        "icao": "ENBN", 
        "lat": 65.461113, 
        "lon": 12.2175, 
        "name": "Bronnoysund Airport"
    }, 
    "ENBO": {
        "alt": 42, 
        "country": "Norway", 
        "iata": "BOO", 
        "icao": "ENBO", 
        "lat": 67.269157, 
        "lon": 14.36527, 
        "name": "Bodo Airport"
    }, 
    "ENBR": {
        "alt": 170, 
        "country": "Norway", 
        "iata": "BGO", 
        "icao": "ENBR", 
        "lat": 60.293381, 
        "lon": 5.218142, 
        "name": "Bergen Flesland Airport"
    }, 
    "ENCN": {
        "alt": 57, 
        "country": "Norway", 
        "iata": "KRS", 
        "icao": "ENCN", 
        "lat": 58.204208, 
        "lon": 8.085369, 
        "name": "Kristiansand Kjevik Airport"
    }, 
    "ENDU": {
        "alt": 252, 
        "country": "Norway", 
        "iata": "BDU", 
        "icao": "ENDU", 
        "lat": 69.055748, 
        "lon": 18.54035, 
        "name": "Bardufoss Airport"
    }, 
    "ENEV": {
        "alt": 84, 
        "country": "Norway", 
        "iata": "EVE", 
        "icao": "ENEV", 
        "lat": 68.491302, 
        "lon": 16.678101, 
        "name": "Evenes Harstad/Narvik Airport"
    }, 
    "ENFL": {
        "alt": 37, 
        "country": "Norway", 
        "iata": "FRO", 
        "icao": "ENFL", 
        "lat": 61.583611, 
        "lon": 5.024722, 
        "name": "Floro Airport"
    }, 
    "ENGM": {
        "alt": 681, 
        "country": "Norway", 
        "iata": "OSL", 
        "icao": "ENGM", 
        "lat": 60.193909, 
        "lon": 11.10036, 
        "name": "Oslo Gardermoen Airport"
    }, 
    "ENHD": {
        "alt": 86, 
        "country": "Norway", 
        "iata": "HAU", 
        "icao": "ENHD", 
        "lat": 59.345261, 
        "lon": 5.208364, 
        "name": "Haugesund Karmoy Airport"
    }, 
    "ENHF": {
        "alt": 799, 
        "country": "Norway", 
        "iata": "HFT", 
        "icao": "ENHF", 
        "lat": 70.658882, 
        "lon": 23.68833, 
        "name": "Hammerfest Airport"
    }, 
    "ENKB": {
        "alt": 204, 
        "country": "Norway", 
        "iata": "KSU", 
        "icao": "ENKB", 
        "lat": 63.111778, 
        "lon": 7.824522, 
        "name": "Kristiansund Kvernberget Airport"
    }, 
    "ENKR": {
        "alt": 283, 
        "country": "Norway", 
        "iata": "KKN", 
        "icao": "ENKR", 
        "lat": 69.725777, 
        "lon": 29.891291, 
        "name": "Kirkenes Hoybuktmoen Airport"
    }, 
    "ENLK": {
        "alt": 78, 
        "country": "Norway", 
        "iata": "LKN", 
        "icao": "ENLK", 
        "lat": 68.152496, 
        "lon": 13.60944, 
        "name": "Leknes Airport"
    }, 
    "ENML": {
        "alt": 10, 
        "country": "Norway", 
        "iata": "MOL", 
        "icao": "ENML", 
        "lat": 62.74472, 
        "lon": 7.2625, 
        "name": "Molde Aro Airport"
    }, 
    "ENRY": {
        "alt": 174, 
        "country": "Norway", 
        "iata": "RYG", 
        "icao": "ENRY", 
        "lat": 59.378929, 
        "lon": 10.78538, 
        "name": "Oslo Moss Rygge Airport"
    }, 
    "ENSB": {
        "alt": 88, 
        "country": "Norway", 
        "iata": "LYR", 
        "icao": "ENSB", 
        "lat": 78.246109, 
        "lon": 15.46555, 
        "name": "Longyearbyen Svalbard Airport"
    }, 
    "ENSH": {
        "alt": 27, 
        "country": "Norway", 
        "iata": "SVJ", 
        "icao": "ENSH", 
        "lat": 68.243332, 
        "lon": 14.66916, 
        "name": "Svolvaer Helle Airport"
    }, 
    "ENSO": {
        "alt": 160, 
        "country": "Norway", 
        "iata": "SRP", 
        "icao": "ENSO", 
        "lat": 59.79192, 
        "lon": 5.34085, 
        "name": "Stord Sorstokken Airport"
    }, 
    "ENST": {
        "alt": 56, 
        "country": "Norway", 
        "iata": "SSJ", 
        "icao": "ENST", 
        "lat": 65.956818, 
        "lon": 12.46894, 
        "name": "Sandnessjoen Airport"
    }, 
    "ENTC": {
        "alt": 31, 
        "country": "Norway", 
        "iata": "TOS", 
        "icao": "ENTC", 
        "lat": 69.683327, 
        "lon": 18.918909, 
        "name": "Tromso Airport"
    }, 
    "ENTO": {
        "alt": 286, 
        "country": "Norway", 
        "iata": "TRF", 
        "icao": "ENTO", 
        "lat": 59.186699, 
        "lon": 10.25862, 
        "name": "Oslo Sandefjord Airport"
    }, 
    "ENVA": {
        "alt": 56, 
        "country": "Norway", 
        "iata": "TRD", 
        "icao": "ENVA", 
        "lat": 63.45755, 
        "lon": 10.92425, 
        "name": "Trondheim Vaernes Airport"
    }, 
    "ENZV": {
        "alt": 29, 
        "country": "Norway", 
        "iata": "SVG", 
        "icao": "ENZV", 
        "lat": 58.87677, 
        "lon": 5.637856, 
        "name": "Stavanger Sola Airport"
    }, 
    "EPBY": {
        "alt": 235, 
        "country": "Poland", 
        "iata": "BZG", 
        "icao": "EPBY", 
        "lat": 53.096802, 
        "lon": 17.977659, 
        "name": "Bydgoszcz Ignacy Jan Paderewski Airport"
    }, 
    "EPGD": {
        "alt": 489, 
        "country": "Poland", 
        "iata": "GDN", 
        "icao": "EPGD", 
        "lat": 54.37756, 
        "lon": 18.466221, 
        "name": "Gdansk Lech Walesa Airport"
    }, 
    "EPKK": {
        "alt": 791, 
        "country": "Poland", 
        "iata": "KRK", 
        "icao": "EPKK", 
        "lat": 50.077728, 
        "lon": 19.78483, 
        "name": "Krakow John Paul II International Airport"
    }, 
    "EPKT": {
        "alt": 995, 
        "country": "Poland", 
        "iata": "KTW", 
        "icao": "EPKT", 
        "lat": 50.474251, 
        "lon": 19.080009, 
        "name": "Katowice International Airport"
    }, 
    "EPLB": {
        "alt": 661, 
        "country": "Poland", 
        "iata": "LUZ", 
        "icao": "EPLB", 
        "lat": 51.240002, 
        "lon": 22.713333, 
        "name": "Lublin Airport"
    }, 
    "EPLL": {
        "alt": 604, 
        "country": "Poland", 
        "iata": "LCJ", 
        "icao": "EPLL", 
        "lat": 51.721882, 
        "lon": 19.39813, 
        "name": "Lodz Wladyslaw Reymont Airport"
    }, 
    "EPMO": {
        "alt": 341, 
        "country": "Poland", 
        "iata": "WMI", 
        "icao": "EPMO", 
        "lat": 52.451111, 
        "lon": 20.651667, 
        "name": "Warsaw Modlin Airport"
    }, 
    "EPPO": {
        "alt": 308, 
        "country": "Poland", 
        "iata": "POZ", 
        "icao": "EPPO", 
        "lat": 52.421028, 
        "lon": 16.826321, 
        "name": "Poznan Lawica Airport"
    }, 
    "EPRA": {
        "alt": 596, 
        "country": "Poland", 
        "iata": "RDO", 
        "icao": "EPRA", 
        "lat": 51.389168, 
        "lon": 21.213612, 
        "name": "Radom Airport"
    }, 
    "EPRZ": {
        "alt": 675, 
        "country": "Poland", 
        "iata": "RZE", 
        "icao": "EPRZ", 
        "lat": 50.109951, 
        "lon": 22.018999, 
        "name": "Rzeszow Jasionka Airport"
    }, 
    "EPSC": {
        "alt": 154, 
        "country": "Poland", 
        "iata": "SZZ", 
        "icao": "EPSC", 
        "lat": 53.584728, 
        "lon": 14.9022, 
        "name": "Szczecin Goleniow Airport"
    }, 
    "EPWA": {
        "alt": 362, 
        "country": "Poland", 
        "iata": "WAW", 
        "icao": "EPWA", 
        "lat": 52.165749, 
        "lon": 20.967119, 
        "name": "Warsaw Chopin Airport"
    }, 
    "EPWR": {
        "alt": 404, 
        "country": "Poland", 
        "iata": "WRO", 
        "icao": "EPWR", 
        "lat": 51.10268, 
        "lon": 16.88583, 
        "name": "Wroclaw Copernicus Airport"
    }, 
    "EPZG": {
        "alt": 194, 
        "country": "Poland", 
        "iata": "IEG", 
        "icao": "EPZG", 
        "lat": 52.138512, 
        "lon": 15.79855, 
        "name": "Zielona Gora Babimost Airport"
    }, 
    "ESDF": {
        "alt": 191, 
        "country": "Sweden", 
        "iata": "RNB", 
        "icao": "ESDF", 
        "lat": 56.266659, 
        "lon": 15.265, 
        "name": "Ronneby Airport"
    }, 
    "ESGG": {
        "alt": 506, 
        "country": "Sweden", 
        "iata": "GOT", 
        "icao": "ESGG", 
        "lat": 57.66283, 
        "lon": 12.27981, 
        "name": "Gothenburg Landvetter Airport"
    }, 
    "ESGJ": {
        "alt": 741, 
        "country": "Sweden", 
        "iata": "JKG", 
        "icao": "ESGJ", 
        "lat": 57.757591, 
        "lon": 14.06873, 
        "name": "Jonkoping Airport"
    }, 
    "ESGT": {
        "alt": 137, 
        "country": "Sweden", 
        "iata": "THN", 
        "icao": "ESGT", 
        "lat": 58.31805, 
        "lon": 12.345, 
        "name": "Trollhattan Vanersborg Airport"
    }, 
    "ESKM": {
        "alt": 634, 
        "country": "Sweden", 
        "iata": "MXX", 
        "icao": "ESKM", 
        "lat": 60.957901, 
        "lon": 14.51138, 
        "name": "Mora Siljan Airport"
    }, 
    "ESKN": {
        "alt": 140, 
        "country": "Sweden", 
        "iata": "NYO", 
        "icao": "ESKN", 
        "lat": 58.788631, 
        "lon": 16.91218, 
        "name": "Stockholm Skavsta Airport"
    }, 
    "ESMK": {
        "alt": 76, 
        "country": "Sweden", 
        "iata": "KID", 
        "icao": "ESMK", 
        "lat": 55.92168, 
        "lon": 14.08553, 
        "name": "Kristianstad Osterlen Airport"
    }, 
    "ESMQ": {
        "alt": 17, 
        "country": "Sweden", 
        "iata": "KLR", 
        "icao": "ESMQ", 
        "lat": 56.685532, 
        "lon": 16.287571, 
        "name": "Kalmar Airport"
    }, 
    "ESMS": {
        "alt": 236, 
        "country": "Sweden", 
        "iata": "MMX", 
        "icao": "ESMS", 
        "lat": 55.53019, 
        "lon": 13.37163, 
        "name": "Malmo Airport"
    }, 
    "ESMT": {
        "alt": 101, 
        "country": "Sweden", 
        "iata": "HAD", 
        "icao": "ESMT", 
        "lat": 56.69112, 
        "lon": 12.82021, 
        "name": "Halmstad Airport"
    }, 
    "ESMX": {
        "alt": 610, 
        "country": "Sweden", 
        "iata": "VXO", 
        "icao": "ESMX", 
        "lat": 56.929138, 
        "lon": 14.72799, 
        "name": "Vaxjo Smaland Airport"
    }, 
    "ESND": {
        "alt": 1178, 
        "country": "Sweden", 
        "iata": "EVG", 
        "icao": "ESND", 
        "lat": 62.04781, 
        "lon": 14.42295, 
        "name": "Sveg Harjedalen Airport"
    }, 
    "ESNG": {
        "alt": 1027, 
        "country": "Sweden", 
        "iata": "GEV", 
        "icao": "ESNG", 
        "lat": 67.132401, 
        "lon": 20.814631, 
        "name": "Gallivare Airport"
    }, 
    "ESNK": {
        "alt": 34, 
        "country": "Sweden", 
        "iata": "KRF", 
        "icao": "ESNK", 
        "lat": 63.048592, 
        "lon": 17.76885, 
        "name": "Kramfors Hoga Kusten Airport "
    }, 
    "ESNL": {
        "alt": 705, 
        "country": "Sweden", 
        "iata": "LYC", 
        "icao": "ESNL", 
        "lat": 64.548317, 
        "lon": 18.716209, 
        "name": "Lycksele Airport"
    }, 
    "ESNN": {
        "alt": 16, 
        "country": "Sweden", 
        "iata": "SDL", 
        "icao": "ESNN", 
        "lat": 62.528118, 
        "lon": 17.44392, 
        "name": "Sundsvall Timra Airport"
    }, 
    "ESNO": {
        "alt": 354, 
        "country": "Sweden", 
        "iata": "OER", 
        "icao": "ESNO", 
        "lat": 63.408329, 
        "lon": 18.99003, 
        "name": "Ornskoldsvik Airport"
    }, 
    "ESNQ": {
        "alt": 1508, 
        "country": "Sweden", 
        "iata": "KRN", 
        "icao": "ESNQ", 
        "lat": 67.821983, 
        "lon": 20.33676, 
        "name": "Kiruna Airport"
    }, 
    "ESNS": {
        "alt": 157, 
        "country": "Sweden", 
        "iata": "SFT", 
        "icao": "ESNS", 
        "lat": 64.624771, 
        "lon": 21.076891, 
        "name": "Skelleftea Airport"
    }, 
    "ESNU": {
        "alt": 24, 
        "country": "Sweden", 
        "iata": "UME", 
        "icao": "ESNU", 
        "lat": 63.791821, 
        "lon": 20.282749, 
        "name": "Umea Airport"
    }, 
    "ESNV": {
        "alt": 1140, 
        "country": "Sweden", 
        "iata": "VHM", 
        "icao": "ESNV", 
        "lat": 64.579079, 
        "lon": 16.83357, 
        "name": "Vilhelmina Airport"
    }, 
    "ESNX": {
        "alt": 1245, 
        "country": "Sweden", 
        "iata": "AJR", 
        "icao": "ESNX", 
        "lat": 65.590271, 
        "lon": 19.28194, 
        "name": "Arvidsjaur Airport"
    }, 
    "ESNZ": {
        "alt": 1233, 
        "country": "Sweden", 
        "iata": "OSD", 
        "icao": "ESNZ", 
        "lat": 63.194118, 
        "lon": 14.502, 
        "name": "Ostersund Are Airport"
    }, 
    "ESOE": {
        "alt": 188, 
        "country": "Sweden", 
        "iata": "ORB", 
        "icao": "ESOE", 
        "lat": 59.223728, 
        "lon": 15.03795, 
        "name": "Orebro Airport"
    }, 
    "ESOH": {
        "alt": 474, 
        "country": "Sweden", 
        "iata": "HFS", 
        "icao": "ESOH", 
        "lat": 60.020061, 
        "lon": 13.5789, 
        "name": "Hagfors Airport"
    }, 
    "ESOK": {
        "alt": 352, 
        "country": "Sweden", 
        "iata": "KSD", 
        "icao": "ESOK", 
        "lat": 59.44471, 
        "lon": 13.33736, 
        "name": "Karlstad Airport"
    }, 
    "ESOW": {
        "alt": 21, 
        "country": "Sweden", 
        "iata": "VST", 
        "icao": "ESOW", 
        "lat": 59.589439, 
        "lon": 16.63361, 
        "name": "Stockholm Vasteras Hasslo Airport"
    }, 
    "ESPA": {
        "alt": 65, 
        "country": "Sweden", 
        "iata": "LLA", 
        "icao": "ESPA", 
        "lat": 65.543747, 
        "lon": 22.121981, 
        "name": "Lulea Airport"
    }, 
    "ESSA": {
        "alt": 137, 
        "country": "Sweden", 
        "iata": "ARN", 
        "icao": "ESSA", 
        "lat": 59.651939, 
        "lon": 17.91861, 
        "name": "Stockholm Arlanda Airport"
    }, 
    "ESSB": {
        "alt": 47, 
        "country": "Sweden", 
        "iata": "BMA", 
        "icao": "ESSB", 
        "lat": 59.35437, 
        "lon": 17.94165, 
        "name": "Stockholm Bromma Airport"
    }, 
    "ESSD": {
        "alt": 503, 
        "country": "Sweden", 
        "iata": "BLE", 
        "icao": "ESSD", 
        "lat": 60.422009, 
        "lon": 15.51521, 
        "name": "Borlange Dala Airport"
    }, 
    "ESSL": {
        "alt": 172, 
        "country": "Sweden", 
        "iata": "LPI", 
        "icao": "ESSL", 
        "lat": 58.406151, 
        "lon": 15.6805, 
        "name": "Linkoping City Airport"
    }, 
    "ESSP": {
        "alt": 32, 
        "country": "Sweden", 
        "iata": "NRK", 
        "icao": "ESSP", 
        "lat": 58.58625, 
        "lon": 16.25062, 
        "name": "Norrkoping Airport"
    }, 
    "ESSV": {
        "alt": 164, 
        "country": "Sweden", 
        "iata": "VBY", 
        "icao": "ESSV", 
        "lat": 57.662788, 
        "lon": 18.34621, 
        "name": "Visby Airport"
    }, 
    "ESTA": {
        "alt": 68, 
        "country": "Sweden", 
        "iata": "AGH", 
        "icao": "ESTA", 
        "lat": 56.29607, 
        "lon": 12.84713, 
        "name": "Angelholm Helsingborg Airport"
    }, 
    "ESUT": {
        "alt": 1503, 
        "country": "Sweden", 
        "iata": "HMV", 
        "icao": "ESUT", 
        "lat": 65.806107, 
        "lon": 15.08277, 
        "name": "Hemavan Airport"
    }, 
    "ETNL": {
        "alt": 138, 
        "country": "Germany", 
        "iata": "RLG", 
        "icao": "ETNL", 
        "lat": 53.917999, 
        "lon": 12.278, 
        "name": "Rostock Laage Airport"
    }, 
    "EVRA": {
        "alt": 34, 
        "country": "Latvia", 
        "iata": "RIX", 
        "icao": "EVRA", 
        "lat": 56.923611, 
        "lon": 23.971109, 
        "name": "Riga International Airport"
    }, 
    "EYKA": {
        "alt": 256, 
        "country": "Lithuania", 
        "iata": "KUN", 
        "icao": "EYKA", 
        "lat": 54.963909, 
        "lon": 24.08477, 
        "name": "Kaunas Airport"
    }, 
    "EYPA": {
        "alt": 33, 
        "country": "Lithuania", 
        "iata": "PLQ", 
        "icao": "EYPA", 
        "lat": 55.973221, 
        "lon": 21.093849, 
        "name": "Palanga International Airport"
    }, 
    "EYVI": {
        "alt": 646, 
        "country": "Lithuania", 
        "iata": "VNO", 
        "icao": "EYVI", 
        "lat": 54.63707, 
        "lon": 25.2878, 
        "name": "Vilnius International Airport"
    }, 
    "FACT": {
        "alt": 151, 
        "country": "South Africa", 
        "iata": "CPT", 
        "icao": "FACT", 
        "lat": -33.964802, 
        "lon": 18.60166, 
        "name": "Cape Town International Airport"
    }, 
    "FAEL": {
        "alt": 435, 
        "country": "South Africa", 
        "iata": "ELS", 
        "icao": "FAEL", 
        "lat": -33.0355, 
        "lon": 27.82593, 
        "name": "East London Airport"
    }, 
    "FAGG": {
        "alt": 648, 
        "country": "South Africa", 
        "iata": "GRJ", 
        "icao": "FAGG", 
        "lat": -34.005501, 
        "lon": 22.37888, 
        "name": "George Airport"
    }, 
    "FAKN": {
        "alt": 2829, 
        "country": "South Africa", 
        "iata": "MQP", 
        "icao": "FAKN", 
        "lat": -25.383101, 
        "lon": 31.1056, 
        "name": "Nelspruit Kruger Mpumalanga International Airport"
    }, 
    "FALA": {
        "alt": 4517, 
        "country": "South Africa", 
        "iata": "HLA", 
        "icao": "FALA", 
        "lat": -25.938499, 
        "lon": 27.92613, 
        "name": "Johannesburg Lanseria International Airport"
    }, 
    "FALE": {
        "alt": 304, 
        "country": "South Africa", 
        "iata": "DUR", 
        "icao": "FALE", 
        "lat": -29.616667, 
        "lon": 31.108334, 
        "name": "Durban King Shaka International Airport"
    }, 
    "FAOR": {
        "alt": 5558, 
        "country": "South Africa", 
        "iata": "JNB", 
        "icao": "FAOR", 
        "lat": -26.139099, 
        "lon": 28.246, 
        "name": "Johannesburg OR Tambo International Airport"
    }, 
    "FAPE": {
        "alt": 226, 
        "country": "South Africa", 
        "iata": "PLZ", 
        "icao": "FAPE", 
        "lat": -33.984901, 
        "lon": 25.61727, 
        "name": "Port Elizabeth Airport"
    }, 
    "FAPM": {
        "alt": 2423, 
        "country": "South Africa", 
        "iata": "PZB", 
        "icao": "FAPM", 
        "lat": -29.648899, 
        "lon": 30.398661, 
        "name": "Pietermaritzburg Airport"
    }, 
    "FARK": {
        "alt": 299, 
        "country": "Namibia", 
        "iata": "WVB", 
        "icao": "FARK", 
        "lat": -22.979799, 
        "lon": 14.64533, 
        "name": "Walvis Bay Airport"
    }, 
    "FBSK": {
        "alt": 3299, 
        "country": "Botswana", 
        "iata": "GBE", 
        "icao": "FBSK", 
        "lat": -24.555201, 
        "lon": 25.9182, 
        "name": "Gaborone Sir Seretse Khama International Airport"
    }, 
    "FCBB": {
        "alt": 1048, 
        "country": "Congo", 
        "iata": "BZV", 
        "icao": "FCBB", 
        "lat": -4.2517, 
        "lon": 15.25303, 
        "name": "Brazzaville Maya Maya Airport"
    }, 
    "FDMS": {
        "alt": 2075, 
        "country": "Swaziland", 
        "iata": "MTS", 
        "icao": "FDMS", 
        "lat": -26.528999, 
        "lon": 31.30751, 
        "name": "Manzini Matsapha Airport"
    }, 
    "FDSK": {
        "alt": -1, 
        "country": "Swaziland", 
        "iata": "SHO", 
        "icao": "FDSK", 
        "lat": -26.356667, 
        "lon": 31.716944, 
        "name": "Manzini King Mswati III International Airport"
    }, 
    "FGSL": {
        "alt": 76, 
        "country": "Equatorial Guinea", 
        "iata": "SSG", 
        "icao": "FGSL", 
        "lat": 3.755267, 
        "lon": 8.708717, 
        "name": "Malabo International Airport"
    }, 
    "FIMP": {
        "alt": 186, 
        "country": "Mauritius", 
        "iata": "MRU", 
        "icao": "FIMP", 
        "lat": -20.430201, 
        "lon": 57.683601, 
        "name": "Port Louis Sir Seewoosagur Ramgoolam Airport"
    }, 
    "FKKD": {
        "alt": 33, 
        "country": "Cameroon", 
        "iata": "DLA", 
        "icao": "FKKD", 
        "lat": 4.006081, 
        "lon": 9.719481, 
        "name": "Douala International Airport"
    }, 
    "FKYS": {
        "alt": 2278, 
        "country": "Cameroon", 
        "iata": "NSI", 
        "icao": "FKYS", 
        "lat": 3.722556, 
        "lon": 11.55326, 
        "name": "Yaounde Airport"
    }, 
    "FLLS": {
        "alt": 3779, 
        "country": "Zambia", 
        "iata": "LUN", 
        "icao": "FLLS", 
        "lat": -15.3308, 
        "lon": 28.45262, 
        "name": "Lusaka Kenneth Kaunda International Airport"
    }, 
    "FLND": {
        "alt": 4167, 
        "country": "Zambia", 
        "iata": "NLA", 
        "icao": "FLND", 
        "lat": -12.9981, 
        "lon": 28.66494, 
        "name": "Ndola International Airport"
    }, 
    "FMCH": {
        "alt": 93, 
        "country": "Comoros", 
        "iata": "HAH", 
        "icao": "FMCH", 
        "lat": -11.5336, 
        "lon": 43.271851, 
        "name": "Moroni Prince Said Ibrahim International Airport"
    }, 
    "FMCZ": {
        "alt": 23, 
        "country": "Mayotte", 
        "iata": "DZA", 
        "icao": "FMCZ", 
        "lat": -12.8066, 
        "lon": 45.280548, 
        "name": "Dzaoudzi Pamandzi International Airport"
    }, 
    "FMEE": {
        "alt": 66, 
        "country": "Reunion", 
        "iata": "RUN", 
        "icao": "FMEE", 
        "lat": -20.889999, 
        "lon": 55.51638, 
        "name": "Saint-Denis Roland Garros Airport"
    }, 
    "FMMI": {
        "alt": 4198, 
        "country": "Madagascar", 
        "iata": "TNR", 
        "icao": "FMMI", 
        "lat": -18.7969, 
        "lon": 47.478802, 
        "name": "Antananarivo Ivato International Airport"
    }, 
    "FNLU": {
        "alt": 243, 
        "country": "Angola", 
        "iata": "LAD", 
        "icao": "FNLU", 
        "lat": -8.85837, 
        "lon": 13.23117, 
        "name": "Luanda Quatro de Fevereiro Airport"
    }, 
    "FOOL": {
        "alt": 39, 
        "country": "Gabon", 
        "iata": "LBV", 
        "icao": "FOOL", 
        "lat": 0.4586, 
        "lon": 9.412283, 
        "name": "Libreville International Airport"
    }, 
    "FQBR": {
        "alt": 33, 
        "country": "Mozambique", 
        "iata": "BEW", 
        "icao": "FQBR", 
        "lat": -19.7964, 
        "lon": 34.907551, 
        "name": "Beira Airport"
    }, 
    "FQLC": {
        "alt": 4505, 
        "country": "Mozambique", 
        "iata": "VXC", 
        "icao": "FQLC", 
        "lat": -13.2739, 
        "lon": 35.266258, 
        "name": "Lichinga Airport"
    }, 
    "FQMA": {
        "alt": 145, 
        "country": "Mozambique", 
        "iata": "MPM", 
        "icao": "FQMA", 
        "lat": -25.920799, 
        "lon": 32.572601, 
        "name": "Maputo International Airport"
    }, 
    "FQNP": {
        "alt": 1444, 
        "country": "Mozambique", 
        "iata": "APL", 
        "icao": "FQNP", 
        "lat": -15.1056, 
        "lon": 39.281799, 
        "name": "Nampula Airport"
    }, 
    "FQPB": {
        "alt": 331, 
        "country": "Mozambique", 
        "iata": "POL", 
        "icao": "FQPB", 
        "lat": -12.9867, 
        "lon": 40.522491, 
        "name": "Pemba Airport"
    }, 
    "FQTT": {
        "alt": 525, 
        "country": "Mozambique", 
        "iata": "TET", 
        "icao": "FQTT", 
        "lat": -16.104799, 
        "lon": 33.640179, 
        "name": "Tete Chingozi Airport"
    }, 
    "FSIA": {
        "alt": 10, 
        "country": "Seychelles", 
        "iata": "SEZ", 
        "icao": "FSIA", 
        "lat": -4.67434, 
        "lon": 55.521832, 
        "name": "Seychelles International Airport"
    }, 
    "FVHA": {
        "alt": 4887, 
        "country": "Zimbabwe", 
        "iata": "HRE", 
        "icao": "FVHA", 
        "lat": -17.931801, 
        "lon": 31.09284, 
        "name": "Harare International Airport"
    }, 
    "FWKI": {
        "alt": 4035, 
        "country": "Malawi", 
        "iata": "LLW", 
        "icao": "FWKI", 
        "lat": -13.7893, 
        "lon": 33.780998, 
        "name": "Lilongwe International Airport"
    }, 
    "FYWH": {
        "alt": 5640, 
        "country": "Namibia", 
        "iata": "WDH", 
        "icao": "FYWH", 
        "lat": -22.479799, 
        "lon": 17.470949, 
        "name": "Windhoek Hosea Kutako International Airport"
    }, 
    "FZAA": {
        "alt": 1027, 
        "country": "Democratic Republic Of The Congo", 
        "iata": "FIH", 
        "icao": "FZAA", 
        "lat": -4.38575, 
        "lon": 15.44456, 
        "name": "Kinshasa N'Djili Airport"
    }, 
    "GABS": {
        "alt": 1247, 
        "country": "Mali", 
        "iata": "BKO", 
        "icao": "GABS", 
        "lat": 12.53354, 
        "lon": -7.94994, 
        "name": "Bamako Senou International Airport"
    }, 
    "GBYD": {
        "alt": 95, 
        "country": "Gambia", 
        "iata": "BJL", 
        "icao": "GBYD", 
        "lat": 13.33796, 
        "lon": -16.652201, 
        "name": "Banjul International Airport"
    }, 
    "GCFV": {
        "alt": 83, 
        "country": "Spain", 
        "iata": "FUE", 
        "icao": "GCFV", 
        "lat": 28.452709, 
        "lon": -13.8637, 
        "name": "Fuerteventura Airport"
    }, 
    "GCGM": {
        "alt": 718, 
        "country": "Spain", 
        "iata": "GMZ", 
        "icao": "GCGM", 
        "lat": 28.016666, 
        "lon": -17.200001, 
        "name": "La Gomera Airport"
    }, 
    "GCHI": {
        "alt": 103, 
        "country": "Spain", 
        "iata": "VDE", 
        "icao": "GCHI", 
        "lat": 27.81484, 
        "lon": -17.886999, 
        "name": "El Hierro Airport"
    }, 
    "GCLA": {
        "alt": 107, 
        "country": "Spain", 
        "iata": "SPC", 
        "icao": "GCLA", 
        "lat": 28.626471, 
        "lon": -17.7556, 
        "name": "La Palma Airport"
    }, 
    "GCLP": {
        "alt": 78, 
        "country": "Spain", 
        "iata": "LPA", 
        "icao": "GCLP", 
        "lat": 27.931881, 
        "lon": -15.3865, 
        "name": "Gran Canaria Airport"
    }, 
    "GCRR": {
        "alt": 47, 
        "country": "Spain", 
        "iata": "ACE", 
        "icao": "GCRR", 
        "lat": 28.945459, 
        "lon": -13.6052, 
        "name": "Lanzarote Airport"
    }, 
    "GCTS": {
        "alt": 209, 
        "country": "Spain", 
        "iata": "TFS", 
        "icao": "GCTS", 
        "lat": 28.04447, 
        "lon": -16.572399, 
        "name": "Tenerife South Airport"
    }, 
    "GCXO": {
        "alt": 2073, 
        "country": "Spain", 
        "iata": "TFN", 
        "icao": "GCXO", 
        "lat": 28.482651, 
        "lon": -16.341499, 
        "name": "Tenerife North Airport"
    }, 
    "GEML": {
        "alt": 156, 
        "country": "Spain", 
        "iata": "MLN", 
        "icao": "GEML", 
        "lat": 35.279812, 
        "lon": -2.95625, 
        "name": "Melilla Airport"
    }, 
    "GFLL": {
        "alt": 84, 
        "country": "Sierra Leone", 
        "iata": "FNA", 
        "icao": "GFLL", 
        "lat": 8.616444, 
        "lon": -13.1954, 
        "name": "Freetown Lungi International Airport"
    }, 
    "GGOV": {
        "alt": 129, 
        "country": "Guinea-Bissau", 
        "iata": "OXB", 
        "icao": "GGOV", 
        "lat": 11.8947, 
        "lon": -15.6536, 
        "name": "Bissau Osvaldo Vieira International Airport"
    }, 
    "GMAD": {
        "alt": 250, 
        "country": "Morocco", 
        "iata": "AGA", 
        "icao": "GMAD", 
        "lat": 30.324989, 
        "lon": -9.41306, 
        "name": "Agadir Al Massira Airport"
    }, 
    "GMAT": {
        "alt": 653, 
        "country": "Morocco", 
        "iata": "TTA", 
        "icao": "GMAT", 
        "lat": 28.448191, 
        "lon": -11.1613, 
        "name": "Tan Tan Airport"
    }, 
    "GMFF": {
        "alt": 1900, 
        "country": "Morocco", 
        "iata": "FEZ", 
        "icao": "GMFF", 
        "lat": 33.927261, 
        "lon": -4.97795, 
        "name": "Fes Saiss Airport"
    }, 
    "GMFO": {
        "alt": 1535, 
        "country": "Morocco", 
        "iata": "OUD", 
        "icao": "GMFO", 
        "lat": 34.787151, 
        "lon": -1.92398, 
        "name": "Oujda Angads Airport"
    }, 
    "GMMD": {
        "alt": 1700, 
        "country": "Morocco", 
        "iata": "BEM", 
        "icao": "GMMD", 
        "lat": 32.400002, 
        "lon": -6.316667, 
        "name": "Beni Mellal Airport"
    }, 
    "GMME": {
        "alt": 276, 
        "country": "Morocco", 
        "iata": "RBA", 
        "icao": "GMME", 
        "lat": 34.05146, 
        "lon": -6.75151, 
        "name": "Rabat-Sale Airport"
    }, 
    "GMMH": {
        "alt": 36, 
        "country": "Morocco", 
        "iata": "VIL", 
        "icao": "GMMH", 
        "lat": 23.713333, 
        "lon": -15.935, 
        "name": "Dakhla Airport"
    }, 
    "GMMI": {
        "alt": 383, 
        "country": "Morocco", 
        "iata": "ESU", 
        "icao": "GMMI", 
        "lat": 31.397499, 
        "lon": -9.681667, 
        "name": "Essaouira Airport"
    }, 
    "GMML": {
        "alt": 207, 
        "country": "Morocco", 
        "iata": "EUN", 
        "icao": "GMML", 
        "lat": 27.151661, 
        "lon": -13.2191, 
        "name": "El Aaiun Hassan Airport"
    }, 
    "GMMN": {
        "alt": 656, 
        "country": "Morocco", 
        "iata": "CMN", 
        "icao": "GMMN", 
        "lat": 33.367458, 
        "lon": -7.58996, 
        "name": "Casablanca Mohammed V International Airport"
    }, 
    "GMMW": {
        "alt": 574, 
        "country": "Morocco", 
        "iata": "NDR", 
        "icao": "GMMW", 
        "lat": 34.988888, 
        "lon": -3.028333, 
        "name": "Nador International Airport"
    }, 
    "GMMX": {
        "alt": 1545, 
        "country": "Morocco", 
        "iata": "RAK", 
        "icao": "GMMX", 
        "lat": 31.60688, 
        "lon": -8.0363, 
        "name": "Marrakesh Menara Airport"
    }, 
    "GMTA": {
        "alt": 95, 
        "country": "Morocco", 
        "iata": "AHU", 
        "icao": "GMTA", 
        "lat": 35.177101, 
        "lon": -3.83952, 
        "name": "Al Hoceima Cherif Al Idrissi Airport"
    }, 
    "GMTN": {
        "alt": 10, 
        "country": "Morocco", 
        "iata": "TTU", 
        "icao": "GMTN", 
        "lat": 35.59433, 
        "lon": -5.32001, 
        "name": "Tetuan Sania Ramel Airport"
    }, 
    "GMTT": {
        "alt": 62, 
        "country": "Morocco", 
        "iata": "TNG", 
        "icao": "GMTT", 
        "lat": 35.72691, 
        "lon": -5.91688, 
        "name": "Tangier Ibn Battouta Airport"
    }, 
    "GOOY": {
        "alt": 85, 
        "country": "Senegal", 
        "iata": "DKR", 
        "icao": "GOOY", 
        "lat": 14.7397, 
        "lon": -17.4902, 
        "name": "Dakar International Airport"
    }, 
    "GQNN": {
        "alt": 7, 
        "country": "Mauritania", 
        "iata": "NKC", 
        "icao": "GQNN", 
        "lat": 18.097851, 
        "lon": -15.9479, 
        "name": "Nouakchott International Airport"
    }, 
    "GQPP": {
        "alt": 16, 
        "country": "Mauritania", 
        "iata": "NDB", 
        "icao": "GQPP", 
        "lat": 20.93306, 
        "lon": -17.0299, 
        "name": "Nouadhibou International Airport"
    }, 
    "GUCY": {
        "alt": 72, 
        "country": "Guinea", 
        "iata": "CKY", 
        "icao": "GUCY", 
        "lat": 9.576889, 
        "lon": -13.6119, 
        "name": "Conakry International Airport"
    }, 
    "GVAC": {
        "alt": 177, 
        "country": "Cape Verde", 
        "iata": "SID", 
        "icao": "GVAC", 
        "lat": 16.741381, 
        "lon": -22.9494, 
        "name": "Espargos Amilcar Cabral International Airport"
    }, 
    "GVBA": {
        "alt": 69, 
        "country": "Cape Verde", 
        "iata": "BVC", 
        "icao": "GVBA", 
        "lat": 16.13653, 
        "lon": -22.8888, 
        "name": "Boa Vista Rabil Airport"
    }, 
    "GVFM": {
        "alt": 230, 
        "country": "Cape Verde", 
        "iata": "RAI", 
        "icao": "GVFM", 
        "lat": 14.92448, 
        "lon": -23.4935, 
        "name": "Praia Nelson Mandela International Airport"
    }, 
    "GVSV": {
        "alt": 66, 
        "country": "Cape Verde", 
        "iata": "VXE", 
        "icao": "GVSV", 
        "lat": 16.833679, 
        "lon": -25.0546, 
        "name": "Sao Vicente Cesaria Evora Airport"
    }, 
    "HAAB": {
        "alt": 7656, 
        "country": "Ethiopia", 
        "iata": "ADD", 
        "icao": "HAAB", 
        "lat": 8.977889, 
        "lon": 38.799309, 
        "name": "Addis Ababa Bole Airport"
    }, 
    "HBBA": {
        "alt": 2582, 
        "country": "Burundi", 
        "iata": "BJM", 
        "icao": "HBBA", 
        "lat": -3.32401, 
        "lon": 29.31851, 
        "name": "Bujumbura International Airport"
    }, 
    "HEBA": {
        "alt": 177, 
        "country": "Egypt", 
        "iata": "HBE", 
        "icao": "HEBA", 
        "lat": 30.91766, 
        "lon": 29.6964, 
        "name": "Alexandria Borg El Arab"
    }, 
    "HECA": {
        "alt": 382, 
        "country": "Egypt", 
        "iata": "CAI", 
        "icao": "HECA", 
        "lat": 30.121941, 
        "lon": 31.40555, 
        "name": "Cairo International Airport"
    }, 
    "HEGN": {
        "alt": 52, 
        "country": "Egypt", 
        "iata": "HRG", 
        "icao": "HEGN", 
        "lat": 27.17831, 
        "lon": 33.799431, 
        "name": "Hurghada International Airport"
    }, 
    "HELX": {
        "alt": 294, 
        "country": "Egypt", 
        "iata": "LXR", 
        "icao": "HELX", 
        "lat": 25.671021, 
        "lon": 32.706581, 
        "name": "Luxor International Airport"
    }, 
    "HEMA": {
        "alt": 251, 
        "country": "Egypt", 
        "iata": "RMF", 
        "icao": "HEMA", 
        "lat": 25.55711, 
        "lon": 34.58371, 
        "name": "Marsa Alam International Airport"
    }, 
    "HESH": {
        "alt": 143, 
        "country": "Egypt", 
        "iata": "SSH", 
        "icao": "HESH", 
        "lat": 27.97728, 
        "lon": 34.394951, 
        "name": "Sharm el-Sheikh International Airport"
    }, 
    "HESN": {
        "alt": 662, 
        "country": "Egypt", 
        "iata": "ASW", 
        "icao": "HESN", 
        "lat": 23.96435, 
        "lon": 32.819969, 
        "name": "Aswan International Airport"
    }, 
    "HKJK": {
        "alt": 5330, 
        "country": "Kenya", 
        "iata": "NBO", 
        "icao": "HKJK", 
        "lat": -1.31924, 
        "lon": 36.927769, 
        "name": "Nairobi Jomo Kenyatta International Airport"
    }, 
    "HKMO": {
        "alt": 200, 
        "country": "Kenya", 
        "iata": "MBA", 
        "icao": "HKMO", 
        "lat": -4.03483, 
        "lon": 39.59425, 
        "name": "Mombasa Moi International Airport"
    }, 
    "HLGN": {
        "alt": 519, 
        "country": "Libya", 
        "iata": "TOB", 
        "icao": "HLGN", 
        "lat": 31.85, 
        "lon": 23.91, 
        "name": "Tobruk Airport"
    }, 
    "HLLB": {
        "alt": 433, 
        "country": "Libya", 
        "iata": "BEN", 
        "icao": "HLLB", 
        "lat": 32.096779, 
        "lon": 20.26947, 
        "name": "Benghazi Benina International Airport"
    }, 
    "HLLM": {
        "alt": 36, 
        "country": "Libya", 
        "iata": "MJI", 
        "icao": "HLLM", 
        "lat": 32.889999, 
        "lon": 13.27, 
        "name": "Tripoli Mitiga International Airport"
    }, 
    "HLLQ": {
        "alt": 2157, 
        "country": "Libya", 
        "iata": "LAQ", 
        "icao": "HLLQ", 
        "lat": 32.788612, 
        "lon": 21.964167, 
        "name": "Beida Al Abraq International Airport"
    }, 
    "HLLT": {
        "alt": 263, 
        "country": "Libya", 
        "iata": "TIP", 
        "icao": "HLLT", 
        "lat": 32.66354, 
        "lon": 13.15901, 
        "name": "Tripoli International Airport"
    }, 
    "HLMS": {
        "alt": 60, 
        "country": "Libya", 
        "iata": "MRA", 
        "icao": "HLMS", 
        "lat": 32.325558, 
        "lon": 15.059722, 
        "name": "Misrata International Airport"
    }, 
    "HRYR": {
        "alt": 4859, 
        "country": "Rwanda", 
        "iata": "KGL", 
        "icao": "HRYR", 
        "lat": -1.96862, 
        "lon": 30.13945, 
        "name": "Kigali Airport"
    }, 
    "HSPN": {
        "alt": 135, 
        "country": "Sudan", 
        "iata": "PZU", 
        "icao": "HSPN", 
        "lat": 19.43363, 
        "lon": 37.23407, 
        "name": "Port Sudan New International Airport"
    }, 
    "HSSJ": {
        "alt": 1513, 
        "country": "Sudan", 
        "iata": "JUB", 
        "icao": "HSSJ", 
        "lat": 4.872006, 
        "lon": 31.60111, 
        "name": "Juba Airport"
    }, 
    "HSSS": {
        "alt": 1265, 
        "country": "Sudan", 
        "iata": "KRT", 
        "icao": "HSSS", 
        "lat": 15.58949, 
        "lon": 32.553162, 
        "name": "Khartoum International Airport"
    }, 
    "HTDA": {
        "alt": 182, 
        "country": "Tanzania", 
        "iata": "DAR", 
        "icao": "HTDA", 
        "lat": -6.87811, 
        "lon": 39.202621, 
        "name": "Dar-es-Salaam Julius Nyerere International Airport"
    }, 
    "HTKJ": {
        "alt": 2932, 
        "country": "Tanzania", 
        "iata": "JRO", 
        "icao": "HTKJ", 
        "lat": -3.4294, 
        "lon": 37.074459, 
        "name": "Kilimanjaro International Airport"
    }, 
    "HTMW": {
        "alt": 3763, 
        "country": "Tanzania", 
        "iata": "MWZ", 
        "icao": "HTMW", 
        "lat": -2.44448, 
        "lon": 32.932659, 
        "name": "Mwanza Airport"
    }, 
    "HTZA": {
        "alt": 54, 
        "country": "Tanzania", 
        "iata": "ZNZ", 
        "icao": "HTZA", 
        "lat": -6.22202, 
        "lon": 39.22488, 
        "name": "Zanzibar Abeid Amani Karume International Airport"
    }, 
    "HUEN": {
        "alt": 3782, 
        "country": "Uganda", 
        "iata": "EBB", 
        "icao": "HUEN", 
        "lat": 0.042386, 
        "lon": 32.443501, 
        "name": "Entebbe International Airport"
    }, 
    "KABE": {
        "alt": 393, 
        "country": "United States", 
        "iata": "ABE", 
        "icao": "KABE", 
        "lat": 40.652302, 
        "lon": -75.440399, 
        "name": "Allentown Lehigh Valley International Airport"
    }, 
    "KABI": {
        "alt": 1790, 
        "country": "United States", 
        "iata": "ABI", 
        "icao": "KABI", 
        "lat": 32.411301, 
        "lon": -99.681801, 
        "name": "Abilene Regional Airport"
    }, 
    "KABQ": {
        "alt": 5355, 
        "country": "United States", 
        "iata": "ABQ", 
        "icao": "KABQ", 
        "lat": 35.040218, 
        "lon": -106.609001, 
        "name": "Albuquerque International Sunport"
    }, 
    "KABR": {
        "alt": 1302, 
        "country": "United States", 
        "iata": "ABR", 
        "icao": "KABR", 
        "lat": 45.439999, 
        "lon": -98.419998, 
        "name": "Aberdeen Regional Airport"
    }, 
    "KACK": {
        "alt": 47, 
        "country": "United States", 
        "iata": "ACK", 
        "icao": "KACK", 
        "lat": 41.253052, 
        "lon": -70.060097, 
        "name": "Nantucket Memorial Airport"
    }, 
    "KACT": {
        "alt": 516, 
        "country": "United States", 
        "iata": "ACT", 
        "icao": "KACT", 
        "lat": 31.61128, 
        "lon": -97.230499, 
        "name": "Waco Regional Airport"
    }, 
    "KACV": {
        "alt": 222, 
        "country": "United States", 
        "iata": "ACV", 
        "icao": "KACV", 
        "lat": 40.978111, 
        "lon": -124.108002, 
        "name": "Eureka Arcata Airport"
    }, 
    "KACY": {
        "alt": 74, 
        "country": "United States", 
        "iata": "ACY", 
        "icao": "KACY", 
        "lat": 39.457581, 
        "lon": -74.577103, 
        "name": "Atlantic City International Airport"
    }, 
    "KAEX": {
        "alt": 89, 
        "country": "United States", 
        "iata": "AEX", 
        "icao": "KAEX", 
        "lat": 31.32737, 
        "lon": -92.5485, 
        "name": "Alexandria International Airport"
    },